time,h_asl,h_dot,vc,pitch,pitch_rate,roll,roll_rate,heading,heading_rate,alpha_deg,a_pilot_x_ft_sec2,a_pilot_y_ft_sec2,a_pilot_z_ft_sec2,pitch_accel_rad_sec2,roll_accel_rad_sec2,yaw_accel_rad_sec2,lat_deg,long_deg,flaps_pos_norm,engine_percent,pilot_elevator_cmd,throttle_0_cmd,temp_rankine,pressure_psf
0,0,0,0,0,0,0,0,0,0,0,0,0,0,0,0,0,0,0,0,0,0,0,0,0
9.5691e-07,0,0,0,0,0,0,0,0,0,0,0,0,0,0,0,0,0,0,0,0,0,0,0,0
5.7415e-06,0,0,0,0,0,0,0,0,0,0,0,0,0,0,0,0,0,0,0,0,0,0,0,0
2.9664e-05,0,0,0,0,0,0,0,0,0,0,0,0,0,0,0,0,0,0,0,0,0,0,0,0
0.00014928,0,0,0,0,0,0,0,0,0,0,0,0,0,0,0,0,0,0,0,0,0,0,0,0
0.00074735,0,0,0,0,0,0,0,0,0,0,0,0,0,0,0,0,0,0,0,0,0,0,0,0
0.0037377,0,0,0,0,0,0,0,0,0,0,0,0,0,0,0,0,0,0,0,0,0,0,0,0
0.0083333,12,0,0,-1.4125e-30,0,1.2722e-14,0,90,0,0,-0.9104,-4.2067e-15,-36.9461,0.31978,5.3439e-16,-5.6092e-17,0,0,0,0,0,0,518.6272,2115.3105
0.016667,12,-0.011739,0.0069542,1.7749e-15,0.15268,1.2722e-14,2.5515e-16,90,7.1201e-18,90.0243,-2.903,-5.4683e-15,-50.6695,0.28186,1.3851e-09,2.232e-15,0,-4.2947e-18,0.00020833,30,0,0,518.6272,2115.3105
0.022089,12,-0.011739,0.0069542,1.7749e-15,0.15268,1.2722e-14,2.5515e-16,90,7.1201e-18,90.0243,-2.903,-5.4683e-15,-50.6695,0.28186,1.3851e-09,2.232e-15,0,-4.2947e-18,0.00020833,30,0,0,518.6272,2115.3105
0.022089,12,-0.011739,0.0069542,1.7749e-15,0.15268,1.2722e-14,2.5515e-16,90,7.1201e-18,90.0243,-2.903,-5.4683e-15,-50.6695,0.28186,1.3851e-09,2.232e-15,0,-4.2947e-18,0.00020833,30,0,0,518.6272,2115.3105
0.025,11.9998,-0.016439,0.0097386,0.0012723,0.28726,4.9849e-14,6.6133e-10,90,1.2888e-15,90.5267,-2.5713,1.2574e-08,-48.8625,0.24704,-3.7621e-08,-8.5718e-09,1.8454e-30,-2.1768e-13,0.00041667,30,0,0,518.6272,2115.3105
0.033333,11.9997,-0.02026,0.012003,0.0036662,0.40521,5.5294e-12,-1.7302e-08,90,-4.0927e-09,90.8919,-2.2613,-4.4238e-07,-46.9434,0.21451,1.6247e-07,6.0498e-08,-2.1774e-22,-6.6591e-12,0.000625,30,0,0,518.6272,2115.3105
0.040009,11.9997,-0.02026,0.012003,0.0036662,0.40521,5.5294e-12,-1.7302e-08,90,-4.0927e-09,90.8919,-2.2613,-4.4238e-07,-46.9434,0.21451,1.6247e-07,6.0498e-08,-2.1774e-22,-6.6591e-12,0.000625,30,0,0,518.6272,2115.3105
0.040009,11.9997,-0.02026,0.012003,0.0036662,0.40521,5.5294e-12,-1.7302e-08,90,-4.0927e-09,90.8919,-2.2613,-4.4238e-07,-46.9434,0.21451,1.6247e-07,6.0498e-08,-2.1774e-22,-6.6591e-12,0.000625,30,0,0,518.6272,2115.3105
0.041667,11.9995,-0.022661,0.013427,0.007043,0.50764,-1.3866e-10,6.0273e-08,90,2.4792e-08,91.2858,-1.9705,3.2774e-06,-45.109,0.18437,-3.1314e-07,-1.0993e-07,-2.3781e-16,-1.5856e-11,0.00083333,30,0,0,518.6272,2115.3105
0.046936,11.9995,-0.022661,0.013427,0.007043,0.50764,-1.3866e-10,6.0273e-08,90,2.4792e-08,91.2858,-1.9705,3.2774e-06,-45.109,0.18437,-3.1314e-07,-1.0993e-07,-2.3781e-16,-1.5856e-11,0.00083333,30,0,0,518.6272,2115.3105
0.046936,11.9995,-0.022661,0.013427,0.007043,0.50764,-1.3866e-10,6.0273e-08,90,2.4792e-08,91.2858,-1.9705,3.2774e-06,-45.109,0.18437,-3.1314e-07,-1.0993e-07,-2.3781e-16,-1.5856e-11,0.00083333,30,0,0,518.6272,2115.3105
0.05,11.9993,-0.024277,0.014387,0.011273,0.59566,3.6364e-10,-8.9248e-08,90,-2.769e-08,91.6941,-1.6995,-6.2488e-06,-43.3535,0.15645,4.0165e-07,1.2097e-07,8.5121e-16,-2.9855e-11,0.0010417,30,0,0,518.6272,2115.3105
0.058333,11.9991,-0.025374,0.015041,0.016237,0.67036,-3.8009e-10,1.0254e-07,90,3.006e-08,92.1177,-1.4473,6.686e-06,-41.6929,0.13068,-4.8329e-07,-1.2995e-07,-1.1748e-15,-4.8645e-11,0.00125,30,0,0,518.6272,2115.3105
0.066666,11.9989,-0.026163,0.015513,0.021823,0.73276,4.7442e-10,-1.2823e-07,90,-3.1975e-08,92.5496,-1.2133,-7.2072e-06,-40.1344,0.10696,5.3808e-07,1.3729e-07,1.7243e-15,-7.2473e-11,0.0014583,30,0,0,518.6272,2115.3105
0.075,11.9987,-0.026783,0.015887,0.02793,0.78383,-5.9421e-10,1.2871e-07,90,3.3561e-08,92.9824,-0.99698,7.5032e-06,-38.6822,0.085191,-5.8452e-07,-1.4332e-07,-1.7493e-15,-1.0144e-10,0.0016667,30,0,0,518.6272,2115.3106
0.083333,11.9984,-0.027329,0.016217,0.034462,0.8245,4.7838e-10,-1.5041e-07,90,-3.4855e-08,93.4084,-0.79761,-7.8128e-06,-37.3377,0.065296,6.2296e-07,1.4825e-07,2.2687e-15,-1.3561e-10,0.001875,30,0,0,518.6272,2115.3106
0.091666,11.9982,-0.027858,0.016538,0.041332,0.85568,-7.7509e-10,1.4707e-07,90,3.5911e-08,93.8207,-0.61454,8.091e-06,-36.1006,0.047186,-6.4918e-07,-1.5227e-07,-2.0777e-15,-1.7499e-10,0.0020833,30,0,0,518.6272,2115.3106
0.1,11.998,-0.028407,0.016873,0.048463,0.87821,4.5054e-10,-1.6294e-07,90,-3.6773e-08,94.2141,-0.44711,-8.2454e-06,-34.969,0.030775,6.747e-07,1.5551e-07,2.6159e-15,-2.196e-10,0.0022917,30,0,0,518.6272,2115.3106
0.10833,11.9977,-0.028997,0.017231,0.055781,0.8929,-9.0733e-10,1.5927e-07,90,3.7456e-08,94.5848,-0.29462,8.4568e-06,-33.94,0.015976,-6.9063e-07,-1.5807e-07,-2.273e-15,-2.6941e-10,0.0025,30,0,0,518.6272,2115.3106
0.11667,11.9975,-0.029634,0.017618,0.063222,0.90053,4.1992e-10,-1.7056e-07,90,-3.7995e-08,94.9312,-0.1564,-8.5387e-06,-33.01,0.002705,7.0685e-07,1.6004e-07,2.8432e-15,-3.2441e-10,0.0027083,30,0,0,518.6272,2115.3107
0.125,11.9972,-0.030319,0.018034,0.070727,0.90182,-1.0014e-09,1.6702e-07,90,3.8395e-08,95.2529,-0.031747,8.6789e-06,-32.1749,-0.0091241,-7.1603e-07,-1.6146e-07,-2.3899e-15,-3.8458e-10,0.0029167,30,0,0,518.6272,2115.3107
0.13333,11.997,-0.031049,0.018477,0.078242,0.89746,3.9047e-10,-1.7496e-07,90,-3.8673e-08,95.551,0.080045,-8.7109e-06,-31.43,-0.019595,7.2558e-07,1.6242e-07,2.9907e-15,-4.4989e-10,0.003125,30,0,0,518.6272,2115.3107
0.14167,11.9967,-0.031816,0.018942,0.08572,0.88811,-1.0675e-09,1.7159e-07,90,3.8857e-08,95.8274,0.17968,8.7903e-06,-30.7707,-0.028792,-7.2984e-07,-1.6296e-07,-2.4557e-15,-5.2032e-10,0.0033333,30,0,0,518.6272,2115.3107
0.15,11.9965,-0.032611,0.019424,0.093121,0.87436,3.6245e-10,-1.77e-07,90,-3.8931e-08,96.0848,0.26784,-8.7853e-06,-30.192,-0.036795,7.3434e-07,1.6311e-07,3.0817e-15,-5.9587e-10,0.0035417,30,0,0,518.6272,2115.3107
0.15833,11.9962,-0.033424,0.019917,0.10041,0.85679,-1.1125e-09,1.7376e-07,90,3.8925e-08,96.326,0.34523,8.8138e-06,-29.689,-0.043686,-7.3477e-07,-1.6293e-07,-2.4847e-15,-6.7651e-10,0.00375,30,0,0,518.6272,2115.3108
0.16667,11.9959,-0.034245,0.020415,0.10755,0.83593,3.3544e-10,-1.7721e-07,90,-3.8847e-08,96.554,0.41253,-8.7781e-06,-29.2568,-0.049543,7.3532e-07,1.6241e-07,3.1301e-15,-7.6225e-10,0.0039583,30,0,0,518.6272,2115.3108
0.175,11.9956,-0.035064,0.020912,0.11451,0.81228,-1.1414e-09,1.7402e-07,90,3.8677e-08,96.7717,0.47042,8.7659e-06,-28.8904,-0.054443,-7.3269e-07,-1.6159e-07,-2.4854e-15,-8.5309e-10,0.0041667,30,0,0,518.6272,2115.3108
0.18333,11.9953,-0.035872,0.021403,0.12128,0.78628,3.0885e-10,-1.7597e-07,90,-3.8457e-08,96.9819,0.51955,-8.7014e-06,-28.585,-0.058459,7.3006e-07,1.6052e-07,3.1454e-15,-9.4901e-10,0.004375,30,0,0,518.6272,2115.3108
0.19167,11.995,-0.036661,0.021883,0.12784,0.75837,-1.1576e-09,1.7278e-07,90,3.8165e-08,97.187,0.56056,8.6553e-06,-28.3358,-0.061663,-7.2495e-07,-1.5919e-07,-2.4634e-15,-1.05e-09,0.0045833,30,0,0,518.6272,2115.3108
0.2,11.9947,-0.037422,0.022347,0.13415,0.72893,2.8227e-10,-1.7353e-07,90,-3.7823e-08,97.3894,0.59408,-8.5675e-06,-28.1384,-0.064124,7.1976e-07,1.5765e-07,3.1342e-15,-1.1562e-09,0.0047916,30,0,0,518.6272,2115.3109
0.20833,11.9944,-0.038149,0.022791,0.14023,0.69831,-1.1638e-09,1.7031e-07,90,3.7434e-08,97.5911,0.62071,8.4938e-06,-27.9883,-0.065908,-7.077e-07,-1.5593e-07,-2.423e-15,-1.2674e-09,0.005,30,0,0,518.6272,2115.3109
0.21667,11.9941,-0.038836,0.023212,0.14605,0.66685,2.554e-10,-1.6778e-07,90,-3.7001e-08,97.794,0.64103,-8.2849e-06,-27.8813,-0.067079,7.0594e-07,1.5405e-07,3.1017e-15,-1.3839e-09,0.0052083,30,0,0,518.6272,2115.3109
0.225,11.9937,-0.039478,0.023607,0.15161,0.63482,-1.1428e-09,1.6947e-07,90,3.6536e-08,97.9996,0.6556,8.2759e-06,-27.8133,-0.067695,-6.9905e-07,-1.5201e-07,-2.3999e-15,-1.5054e-09,0.0054166,30,0,0,518.6272,2115.3109
0.23333,11.9934,-0.040072,0.023974,0.1569,0.6025,2.6949e-10,-1.6449e-07,90,-3.6027e-08,98.2094,0.66496,-8.1837e-06,-27.7805,-0.067815,6.8812e-07,1.4982e-07,3.0334e-15,-1.6322e-09,0.005625,30,0,0,518.6272,2115.311
0.24167,11.9931,-0.040614,0.024311,0.16192,0.57012,-1.1013e-09,1.6426e-07,90,3.5492e-08,98.4246,0.66961,8.0501e-06,-27.7791,-0.067492,-6.7879e-07,-1.475e-07,-2.3394e-15,-1.7641e-09,0.0058333,30,0,0,518.6272,2115.311
0.25,11.9927,-0.041101,0.024616,0.16667,0.53789,2.6752e-10,-1.6004e-07,90,-3.4922e-08,98.6464,0.67005,-7.9364e-06,-27.8058,-0.066777,6.6773e-07,1.451e-07,2.9516e-15,-1.9013e-09,0.0060416,30,0,0,518.6272,2115.311
0.25833,11.9924,-0.041531,0.024889,0.17115,0.50601,-1.0662e-09,1.5898e-07,90,3.4346e-08,98.8757,0.66674,7.7953e-06,-27.8572,-0.065718,-6.573e-07,-1.4263e-07,-2.271e-15,-2.0438e-09,0.00625,30,0,0,518.6272,2115.311
0.26667,11.992,-0.041904,0.025128,0.17537,0.47463,2.5862e-10,-1.5507e-07,90,-3.3741e-08,99.1134,0.6601,-7.6701e-06,-27.9303,-0.064359,6.457e-07,1.4007e-07,2.8659e-15,-2.1915e-09,0.0064583,30,0,0,518.6272,2115.3111
0.275,11.9917,-0.042219,0.025334,0.17932,0.4439,-1.0336e-09,1.5344e-07,90,3.3129e-08,99.3604,0.65054,7.5237e-06,-28.0223,-0.062743,-6.3452e-07,-1.3747e-07,-2.1946e-15,-2.3445e-09,0.0066666,30,0,0,518.6272,2115.3111
0.28333,11.9913,-0.042476,0.025507,0.18302,0.41394,2.4508e-10,-1.4973e-07,90,-3.2498e-08,99.6175,0.63845,-7.3892e-06,-28.1303,-0.060908,6.2249e-07,1.3482e-07,2.7762e-15,-2.5029e-09,0.006875,30,0,0,518.6272,2115.3111
0.29167,11.991,-0.042674,0.025646,0.18647,0.38486,-1.0027e-09,1.477e-07,90,3.1865e-08,99.8852,0.62419,7.2398e-06,-28.2521,-0.05889,-6.1081e-07,-1.3214e-07,-2.1117e-15,-2.6666e-09,0.0070833,30,0,0,518.6272,2115.3112
0.3,11.9906,-0.042816,0.025753,0.18968,0.35675,2.2816e-10,-1.4415e-07,90,-3.1221e-08,100.1643,0.60809,-7.1e-06,-28.3851,-0.056722,5.9854e-07,1.2945e-07,2.6836e-15,-2.8358e-09,0.0072916,30,0,0,518.6272,2115.3112
0.30833,11.9903,-0.042903,0.025828,0.19265,0.32966,-9.731e-10,1.4183e-07,90,3.0578e-08,100.4553,0.59045,6.9497e-06,-28.5275,-0.054434,-5.8657e-07,-1.2674e-07,-2.0241e-15,-3.0103e-09,0.0075,30,0,0,518.6272,2115.3112
0.31667,11.9899,-0.042934,0.025872,0.1954,0.30367,2.0886e-10,-1.3844e-07,90,-2.993e-08,100.7589,0.57155,-6.8072e-06,-28.6771,-0.052056,5.7422e-07,1.2404e-07,2.5892e-15,-3.1902e-09,0.0077083,30,0,0,518.6272,2115.3112
0.325,11.9896,-0.042914,0.025886,0.19793,0.27882,-9.4481e-10,1.3593e-07,90,2.9288e-08,101.0755,0.55167,6.6579e-06,-28.8322,-0.049611,-5.6217e-07,-1.2136e-07,-1.9337e-15,-3.3757e-09,0.0079166,30,0,0,518.6272,2115.3113
0.33333,11.9892,-0.042843,0.025872,0.20025,0.25513,1.8798e-10,-1.3268e-07,90,-2.8652e-08,101.4057,0.53104,-6.5161e-06,-28.9912,-0.047123,5.4989e-07,1.1868e-07,2.4943e-15,-3.5666e-09,0.008125,30,0,0,518.6272,2115.3113
0.34167,11.9888,-0.042723,0.025831,0.20238,0.23263,-9.1771e-10,1.3007e-07,90,2.801e-08,101.7501,0.50987,6.3693e-06,-29.1527,-0.044613,-5.3791e-07,-1.1603e-07,-1.842e-15,-3.763e-09,0.0083333,30,0,0,518.6272,2115.3113
0.35,11.9885,-0.042557,0.025764,0.20432,0.21133,1.6619e-10,-1.2696e-07,90,-2.7386e-08,102.109,0.48837,-6.2283e-06,-29.3153,-0.042099,5.2582e-07,1.1342e-07,2.4001e-15,-3.9649e-09,0.0085416,30,0,0,518.6272,2115.3113
0.35833,11.9881,-0.042348,0.025673,0.20608,0.19123,-8.9181e-10,1.243e-07,90,2.6767e-08,102.483,0.4667,6.0863e-06,-29.4779,-0.039598,-5.1405e-07,-1.1083e-07,-1.7505e-15,-4.1724e-09,0.00875,30,0,0,518.6272,2115.3114
0.36667,11.9878,-0.042098,0.02556,0.20767,0.17232,1.3437e-10,-1.2133e-07,90,-2.6148e-08,102.8725,0.44504,-5.9481e-06,-29.6394,-0.037125,5.0227e-07,1.0828e-07,2.3074e-15,-4.3855e-09,0.0089583,30,0,0,518.6272,2115.3114
0.375,11.9874,-0.041808,0.025425,0.20911,0.1546,-8.6714e-10,1.1867e-07,90,2.555e-08,103.2779,0.42351,5.8096e-06,-29.7988,-0.034692,-4.8587e-07,-1.0576e-07,-1.6601e-15,-4.6041e-09,0.0091666,30,0,0,518.6273,2115.3114
0.37635,11.9874,-0.041808,0.025425,0.20911,0.1546,-8.6714e-10,1.1867e-07,90,2.555e-08,103.2779,0.42351,5.8096e-06,-29.7988,-0.034692,-4.8587e-07,-1.0576e-07,-1.6601e-15,-4.6041e-09,0.0091666,30,0,0,518.6273,2115.3114
0.37635,11.9874,-0.041808,0.025425,0.20911,0.1546,-8.6714e-10,1.1867e-07,90,2.555e-08,103.2779,0.42351,5.8096e-06,-29.7988,-0.034692,-4.8587e-07,-1.0576e-07,-1.6601e-15,-4.6041e-09,0.0091666,30,0,0,518.6273,2115.3114
0.38333,11.9871,-0.041483,0.025271,0.2104,0.13803,1.1548e-10,-1.135e-07,90,-2.4943e-08,103.6997,0.40225,-5.5707e-06,-29.9554,-0.03231,4.7995e-07,1.0332e-07,2.2171e-15,-4.8284e-09,0.009375,30,0,0,518.6273,2115.3115
0.38633,11.9871,-0.041483,0.025271,0.2104,0.13803,1.1548e-10,-1.135e-07,90,-2.4943e-08,103.6997,0.40225,-5.5707e-06,-29.9554,-0.03231,4.7995e-07,1.0332e-07,2.2171e-15,-4.8284e-09,0.009375,30,0,0,518.6273,2115.3115
0.38633,11.9871,-0.041483,0.025271,0.2104,0.13803,1.1548e-10,-1.135e-07,90,-2.4943e-08,103.6997,0.40225,-5.5707e-06,-29.9554,-0.03231,4.7995e-07,1.0332e-07,2.2171e-15,-4.8284e-09,0.009375,30,0,0,518.6273,2115.3115
0.39167,11.9867,-0.041124,0.025099,0.21155,0.12261,-8.2409e-10,1.1584e-07,90,2.4385e-08,104.1383,0.38137,5.5245e-06,-30.1085,-0.029989,-4.7072e-07,-1.0091e-07,-1.6042e-15,-5.0582e-09,0.0095833,30,0,0,518.6273,2115.3115
0.39599,11.9867,-0.041124,0.025099,0.21155,0.12261,-8.2409e-10,1.1584e-07,90,2.4385e-08,104.1383,0.38137,5.5245e-06,-30.1085,-0.029989,-4.7072e-07,-1.0091e-07,-1.6042e-15,-5.0582e-09,0.0095833,30,0,0,518.6273,2115.3115
0.39599,11.9867,-0.041124,0.025099,0.21155,0.12261,-8.2409e-10,1.1584e-07,90,2.4385e-08,104.1383,0.38137,5.5245e-06,-30.1085,-0.029989,-4.7072e-07,-1.0091e-07,-1.6042e-15,-5.0582e-09,0.0095833,30,0,0,518.6273,2115.3115
0.4,11.9864,-0.040735,0.024911,0.21257,0.10829,1.373e-10,-1.0909e-07,90,-2.3792e-08,104.594,0.36095,-5.423e-06,-30.2574,-0.027738,4.5769e-07,9.8541e-08,2.1109e-15,-5.2937e-09,0.0097916,30,0,0,518.6273,2115.3115
0.40543,11.9864,-0.040735,0.024911,0.21257,0.10829,1.373e-10,-1.0909e-07,90,-2.3792e-08,104.594,0.36095,-5.423e-06,-30.2574,-0.027738,4.5769e-07,9.8541e-08,2.1109e-15,-5.2937e-09,0.0097916,30,0,0,518.6273,2115.3115
0.40543,11.9864,-0.040735,0.024911,0.21257,0.10829,1.373e-10,-1.0909e-07,90,-2.3792e-08,104.594,0.36095,-5.423e-06,-30.2574,-0.027738,4.5769e-07,9.8541e-08,2.1109e-15,-5.2937e-09,0.0097916,30,0,0,518.6273,2115.3115
0.40833,11.9861,-0.040317,0.024708,0.21347,0.095043,-7.6083e-10,1.0961e-07,90,2.3256e-08,105.0672,0.34109,5.2747e-06,-30.4017,-0.025563,-4.4772e-07,-9.6247e-08,-1.5258e-15,-5.5349e-09,0.01,30,0,0,518.6273,2115.3115
0.41471,11.9861,-0.040317,0.024708,0.21347,0.095043,-7.6083e-10,1.0961e-07,90,2.3256e-08,105.0672,0.34109,5.2747e-06,-30.4017,-0.025563,-4.4772e-07,-9.6247e-08,-1.5258e-15,-5.5349e-09,0.01,30,0,0,518.6273,2115.3115
0.41471,11.9861,-0.040317,0.024708,0.21347,0.095043,-7.6083e-10,1.0961e-07,90,2.3256e-08,105.0672,0.34109,5.2747e-06,-30.4017,-0.025563,-4.4772e-07,-9.6247e-08,-1.5258e-15,-5.5349e-09,0.01,30,0,0,518.6273,2115.3115
0.41667,11.9857,-0.039873,0.024493,0.21426,0.082837,1.3619e-10,-1.0433e-07,90,-2.2697e-08,105.5583,0.32184,-5.1706e-06,-30.5409,-0.02347,4.3626e-07,9.3995e-08,2.008e-15,-5.7817e-09,0.010208,30,0,0,518.6273,2115.3116
0.42384,11.9857,-0.039873,0.024493,0.21426,0.082837,1.3619e-10,-1.0433e-07,90,-2.2697e-08,105.5583,0.32184,-5.1706e-06,-30.5409,-0.02347,4.3626e-07,9.3995e-08,2.008e-15,-5.7817e-09,0.010208,30,0,0,518.6273,2115.3116
0.42384,11.9857,-0.039873,0.024493,0.21426,0.082837,1.3619e-10,-1.0433e-07,90,-2.2697e-08,105.5583,0.32184,-5.1706e-06,-30.5409,-0.02347,4.3626e-07,9.3995e-08,2.008e-15,-5.7817e-09,0.010208,30,0,0,518.6273,2115.3116
0.425,11.9854,-0.039406,0.024266,0.21495,0.071631,-7.2383e-10,1.0414e-07,90,2.2181e-08,106.0674,0.30327,5.0338e-06,-30.6747,-0.021463,-2.2883e-07,-1.9197e-09,-1.4523e-15,-6.0342e-09,0.010417,30,0,0,518.6273,2115.3116
0.43079,11.9854,-0.039406,0.024266,0.21495,0.071631,-7.2383e-10,1.0414e-07,90,2.2181e-08,106.0674,0.30327,5.0338e-06,-30.6747,-0.021463,-2.2883e-07,-1.9197e-09,-1.4523e-15,-6.0342e-09,0.010417,30,0,0,518.6273,2115.3116
0.43285,11.9854,-0.039406,0.024266,0.21495,0.071631,-7.2383e-10,1.0414e-07,90,2.2181e-08,106.0674,0.30327,5.0338e-06,-30.6747,-0.021463,-2.2883e-07,-1.9197e-09,-1.4523e-15,-6.0342e-09,0.010417,30,0,0,518.6273,2115.3116
0.43285,11.9854,-0.039406,0.024266,0.21495,0.071631,-7.2383e-10,1.0414e-07,90,2.2181e-08,106.0674,0.30327,5.0338e-06,-30.6747,-0.021463,-2.2883e-07,-1.9197e-09,-1.4523e-15,-6.0342e-09,0.010417,30,0,0,518.6273,2115.3116
0.43333,11.9851,-0.038917,0.024029,0.21555,0.061384,1.4268e-10,-5.1232e-09,90,2.1266e-08,106.5949,0.28543,-2.5583e-08,-30.8029,-0.017514,1.3241e-07,6.9389e-08,1.9153e-15,-6.2923e-09,0.010625,30,0,0,518.6273,2115.3116
0.43573,11.9851,-0.038917,0.024029,0.21555,0.061384,1.4268e-10,-5.1232e-09,90,2.1266e-08,106.5949,0.28543,-2.5583e-08,-30.8029,-0.017514,1.3241e-07,6.9389e-08,1.9153e-15,-6.2923e-09,0.010625,30,0,0,518.6273,2115.3116
0.44166,11.9847,-0.038411,0.023635,0.21606,0.053022,9.9064e-11,5.8225e-08,90,5.4396e-08,105.9097,0.3216,3.8944e-06,-31.0519,-0.01348,-9.9e-08,2.5176e-08,-9.7037e-18,-6.5562e-09,0.010833,30,0,0,518.6273,2115.3116
0.45,11.9844,-0.037884,0.023121,0.2165,0.046586,5.8358e-10,1.1002e-08,90,6.6417e-08,104.1435,0.36928,1.5214e-06,-31.3061,-0.012636,4.3177e-08,1.941e-08,1.5592e-15,-6.7865e-09,0.011042,30,0,0,518.6273,2115.3117
0.45833,11.9841,-0.037339,0.022691,0.21689,0.040552,6.7475e-10,3.1653e-08,90,7.5685e-08,103.1141,0.3456,9.8346e-07,-31.3612,-0.01068,-4.2502e-08,1.5278e-08,1.017e-15,-6.9778e-09,0.01125,30,0,0,518.6273,2115.3117
0.46666,11.9838,-0.036784,0.022216,0.21723,0.035453,9.3815e-10,1.1389e-08,90,8.2979e-08,101.448,0.35477,8.8704e-07,-31.4849,-0.0090858,1.2836e-08,7.8894e-09,1.7804e-15,-7.1685e-09,0.011458,30,0,0,518.6273,2115.3117
0.475,11.9835,-0.036059,0.021724,0.21752,0.031115,1.0328e-09,1.7532e-08,90,8.6746e-08,100.7079,0.29995,3.6991e-07,-31.5988,-0.0062298,-1.9035e-08,4.354e-09,1.7474e-15,-7.3171e-09,0.011667,30,0,0,518.6273,2115.3117
0.48333,11.9832,-0.035278,0.021187,0.21778,0.02814,1.1787e-09,8.452e-09,90,8.8825e-08,99.693,0.27365,2.2007e-07,-31.7866,-0.0052728,1.3246e-08,-8.5547e-08,2.2103e-15,-7.4682e-09,0.011875,30,0,0,518.6273,2115.3117
0.49166,11.9829,-0.034527,0.02071,0.21802,0.025623,1.2489e-09,1.4622e-08,90,4.7979e-08,99.2527,0.23363,-5.4393e-06,-31.8472,-0.0038204,-2.2792e-08,-2.9811e-10,2.3695e-15,-7.592e-09,0.012083,30,0,0,518.6273,2115.3118
0.5,11.9826,-0.03378,0.020227,0.21823,0.023799,1.3706e-09,3.7392e-09,90,4.7837e-08,98.6135,0.21863,-2.8246e-07,-31.9379,-0.0033754,1.1441e-10,-4.1468e-10,2.7836e-15,-7.7164e-09,0.012292,30,0,0,518.6273,2115.3118
0.50833,11.9824,-0.033071,0.019789,0.21843,0.022187,1.4017e-09,3.7933e-09,90,4.7639e-08,98.3475,0.1946,-5.3752e-08,-31.9628,-0.0025365,-2.2688e-09,-9.1774e-10,3.0706e-15,-7.8234e-09,0.0125,30,0,0,518.6273,2115.3118
0.51666,11.9821,-0.03238,0.019357,0.21861,0.020976,1.4332e-09,2.7085e-09,90,4.7201e-08,97.9408,0.18611,-7.6876e-08,-32.0126,-0.0022966,-1.8443e-09,-9.767e-10,3.3979e-15,-7.9305e-09,0.012708,30,0,0,518.6273,2115.3118
0.525,11.9818,-0.031725,0.018958,0.21879,0.01988,1.4557e-09,1.8264e-09,90,4.6734e-08,97.7762,0.17159,-7.4785e-08,-32.024,-0.0017879,-2.0268e-09,-1.2427e-09,3.7138e-15,-8.0262e-09,0.012917,30,0,0,518.6273,2115.3119
0.53333,11.9816,-0.031091,0.018568,0.21895,0.019026,1.4708e-09,8.5657e-10,90,4.6141e-08,97.5142,0.16669,-8.4494e-08,-32.053,-0.0016484,-1.5592e-09,-1.2445e-09,4.0334e-15,-8.1216e-09,0.013125,30,0,0,518.6273,2115.3119
0.54166,11.9813,-0.030485,0.018202,0.21911,0.018239,1.4779e-09,1.1004e-10,90,4.5547e-08,97.4096,0.1578,-7.9782e-08,-32.0584,-0.0013326,-1.1273e-08,-1.4289e-09,4.3467e-15,-8.2094e-09,0.013333,30,0,0,518.6273,2115.3119
0.55,11.981,-0.029899,0.017845,0.21927,0.017603,1.4788e-09,-5.2748e-09,90,4.4864e-08,97.2386,0.1549,-2.9415e-07,-32.0756,-0.0012474,-2.2099e-09,-1.3663e-09,4.6591e-15,-8.2965e-09,0.013542,30,0,0,518.6273,2115.3119
0.55833,11.9808,-0.029335,0.017506,0.21941,0.017007,1.4347e-09,-6.3322e-09,90,4.4212e-08,97.1702,0.14938,-4.3001e-08,-32.0782,-0.0010481,3.8444e-09,-1.4218e-09,5.0315e-15,-8.3783e-09,0.01375,30,0,0,518.6273,2115.3119
0.56666,11.9806,-0.028787,0.017175,0.21955,0.016507,1.3819e-09,-4.4991e-09,90,4.3533e-08,97.0569,0.14761,-6.0459e-08,-32.0885,-0.00099339,-1.3902e-09,-1.4178e-09,5.3093e-15,-8.4593e-09,0.013958,30,0,0,518.6273,2115.3119
0.575,11.9803,-0.028258,0.016858,0.21969,0.016032,1.3444e-09,-5.1654e-09,90,4.2856e-08,97.0105,0.14414,-5.4428e-08,-32.0897,-0.00086547,1.3349e-09,-1.4391e-09,5.6514e-15,-8.5365e-09,0.014167,30,0,0,518.6273,2115.312
0.58333,11.9801,-0.027742,0.016547,0.21982,0.015619,1.3013e-09,-4.5305e-09,90,4.2169e-08,96.9341,0.14302,-6.0665e-08,-32.0959,-0.00082862,-5.0322e-10,-1.4185e-09,5.9447e-15,-8.6126e-09,0.014375,30,0,0,518.6273,2115.312
0.59166,11.9799,-0.027241,0.016247,0.21996,0.015223,1.2635e-09,-4.7732e-09,90,4.1492e-08,96.9014,0.14081,-5.7389e-08,-32.0964,-0.00074491,8.986e-09,-6.9258e-08,6.2588e-15,-8.6859e-09,0.014583,30,0,0,518.6273,2115.312
0.6,11.9796,-0.026752,0.015954,0.22008,0.014868,1.2237e-09,-6.0962e-10,90,8.4235e-09,96.8487,0.14007,-4.3179e-06,-32.1001,-0.00071861,-1.1304e-08,6.4993e-08,6.5511e-15,-8.7581e-09,0.014792,30,0,0,518.6273,2115.312
0.60833,11.9794,-0.026275,0.015669,0.22021,0.014525,1.2186e-09,-5.8876e-09,90,3.9456e-08,96.8245,0.13863,4.0936e-06,-32.1003,-0.00066255,1.2863e-08,-6.7323e-08,6.8993e-15,-8.828e-09,0.015,30,0,0,518.6273,2115.312
0.61666,11.9792,-0.025808,0.015389,0.22033,0.014208,1.1695e-09,1.3033e-10,90,7.3113e-09,96.7871,0.13812,-4.2035e-06,-32.1025,-0.00064269,-6.1987e-09,-2.9615e-10,7.1271e-15,-8.8968e-09,0.015208,30,0,0,518.6273,2115.3121
0.625,11.979,-0.025352,0.015116,0.22045,0.013901,1.1705e-09,-2.8298e-09,90,7.1698e-09,96.7683,0.13717,7.3387e-10,-32.1024,-0.00060394,5.2425e-09,-1.4919e-08,7.5092e-15,-8.9637e-09,0.015417,30,0,0,518.6273,2115.3121
0.63333,11.9788,-0.024905,0.014849,0.22056,0.013613,1.1469e-09,-3.5413e-10,90,4.6468e-11,96.7407,0.1368,-9.3103e-07,-32.1037,-0.00058813,-1.519e-08,1.435e-08,7.7517e-15,-9.0295e-09,0.015625,30,0,0,518.6273,2115.3121
0.64166,11.9786,-0.024467,0.014588,0.22067,0.013332,1.1439e-09,-7.5805e-09,90,6.898e-09,96.7254,0.13615,7.0621e-07,-32.1036,-0.00056034,2.6192e-09,-1.4535e-08,8.0944e-15,-9.0937e-09,0.015833,30,0,0,518.6273,2115.3121
0.65,11.9784,-0.024037,0.014331,0.22079,0.013065,1.0807e-09,-6.3566e-09,90,-4.2106e-11,96.7043,0.13587,-8.6521e-07,-32.1042,-0.00054711,3.811e-10,1.4045e-08,8.4171e-15,-9.1568e-09,0.016042,30,0,0,518.6273,2115.3121
0.65833,11.9782,-0.023617,0.01408,0.22089,0.012804,1.0277e-09,-6.1488e-09,90,6.6637e-09,96.6911,0.13541,9.1581e-07,-32.104,-0.00052632,2.6392e-09,-1.4032e-08,8.7134e-15,-9.2185e-09,0.01625,30,0,0,518.6273,2115.3121
0.66666,11.978,-0.023204,0.013833,0.221,0.012552,9.7645e-10,-4.9145e-09,90,-3.5934e-11,96.6741,0.13518,-8.4371e-07,-32.1044,-0.0005148,-1.7502e-09,1.2289e-08,9.0131e-15,-9.279e-09,0.016458,30,0,0,518.6273,2115.3121
0.675,11.9778,-0.022798,0.013591,0.22111,0.012306,9.3547e-10,-5.7275e-09,90,5.8318e-09,96.6624,0.13484,8.0404e-07,-32.1042,-0.00049854,2.9014e-09,-1.2286e-08,9.3198e-15,-9.3383e-09,0.016667,30,0,0,518.6273,2115.3122
0.68333,11.9776,-0.022401,0.013354,0.22121,0.012068,8.8771e-10,-4.3649e-09,90,-3.4285e-11,96.6481,0.13465,-7.387e-07,-32.1043,-0.00048817,-1.0702e-08,3.4178e-11,9.5959e-15,-9.3964e-09,0.016875,30,0,0,518.6273,2115.3122
0.69166,11.9774,-0.02201,0.013121,0.22131,0.011835,8.5132e-10,-9.4747e-09,90,-1.7972e-11,96.6372,0.13439,-1.7453e-07,-32.104,-0.00047486,-7.6306e-11,5.4235e-12,9.8983e-15,-9.4534e-09,0.017083,30,0,0,518.6273,2115.3122
0.7,11.9772,-0.021627,0.012892,0.22141,0.011609,7.7235e-10,-9.5111e-09,90,-1.539e-11,96.6247,0.13423,6.3716e-08,-32.104,-0.00046534,4.549e-09,1.7539e-11,1.0234e-14,-9.5094e-09,0.017292,30,0,0,518.6273,2115.3122
0.70833,11.977,-0.02125,0.012667,0.2215,0.011386,6.9307e-10,-7.3391e-09,90,-7.0228e-12,96.6144,0.13402,4.8344e-08,-32.1038,-0.000454,-1.4354e-10,6.2142e-12,1.049e-14,-9.5642e-09,0.0175,30,0,0,518.6273,2115.3122
0.71666,11.9769,-0.02088,0.012446,0.2216,0.01117,6.3189e-10,-7.4076e-09,90,-4.0614e-12,96.6031,0.13387,4.9355e-08,-32.1037,-0.00044512,1.9747e-09,-5.9751e-14,1.0799e-14,-9.618e-09,0.017708,30,0,0,518.6273,2115.3122
0.725,11.9767,-0.020517,0.012229,0.22169,0.010957,5.7014e-10,-6.4647e-09,90,-4.095e-12,96.5932,0.13369,4.1934e-08,-32.1034,-0.00043513,2.9168e-10,2.25e-12,1.1065e-14,-9.6708e-09,0.017917,30,0,0,518.6273,2115.3122
0.73333,11.9765,-0.02016,0.012016,0.22178,0.010749,5.1625e-10,-6.3255e-09,90,-3.0251e-12,96.5826,0.13355,4.1571e-08,-32.1033,-0.00042674,-3.8302e-09,-1.8597e-11,1.1347e-14,-9.7226e-09,0.018125,30,0,0,518.6273,2115.3123
0.74166,11.9764,-0.019809,0.011807,0.22187,0.010546,4.6352e-10,-8.1543e-09,90,-1.1909e-11,96.5729,0.1334,-6.7393e-08,-32.103,-0.00041771,-1.0293e-10,1.046e-11,1.161e-14,-9.7734e-09,0.018333,30,0,0,518.6273,2115.3123
0.75,11.9762,-0.019465,0.011602,0.22196,0.010346,3.9556e-10,-8.2034e-09,90,-6.9181e-12,96.5628,0.13327,5.5079e-08,-32.1028,-0.00040975,3.1225e-09,-1.0571e-11,1.1907e-14,-9.8232e-09,0.018542,30,0,0,518.6273,2115.3123
0.75833,11.976,-0.019126,0.0114,0.22205,0.01015,3.2719e-10,-6.7125e-09,90,-1.1969e-11,96.5533,0.13314,4.2682e-08,-32.1026,-0.00040141,1.3145e-10,2.5236e-12,1.2148e-14,-9.8721e-09,0.01875,30,0,0,518.6273,2115.3123
0.76666,11.9759,-0.018794,0.011201,0.22213,0.0099588,2.7123e-10,-6.6497e-09,90,-1.0766e-11,96.5435,0.13302,4.3864e-08,-32.1024,-0.00039381,1.5072e-09,7.6061e-12,1.2421e-14,-9.9201e-09,0.018958,30,0,0,518.6273,2115.3123
0.775,11.9757,-0.018467,0.011006,0.22221,0.0097708,2.1581e-10,-5.9301e-09,90,-7.1371e-12,96.5341,0.13289,3.8878e-08,-32.1022,-0.00038602,3.9952e-10,5.4365e-13,1.2664e-14,-9.9671e-09,0.019167,30,0,0,518.6273,2115.3123
0.78333,11.9756,-0.018146,0.010815,0.2223,0.0095865,1.6639e-10,-5.7393e-09,90,-6.8792e-12,96.5245,0.13277,3.7425e-08,-32.102,-0.00037873,9.051e-10,2.1761e-12,1.2916e-14,-1.0013e-08,0.019375,30,0,0,518.6273,2115.3123
0.79166,11.9754,-0.017831,0.010627,0.22238,0.0094057,1.1855e-10,-5.3072e-09,90,-5.8416e-12,96.5152,0.13266,3.4429e-08,-32.1018,-0.00037138,4.5742e-10,1.7619e-12,1.3154e-14,-1.0059e-08,0.019583,30,0,0,518.6273,2115.3123
0.8,11.9753,-0.017521,0.010442,0.22245,0.0092284,7.4317e-11,-5.0888e-09,90,-5.0014e-12,96.5057,0.13255,3.3025e-08,-32.1015,-0.00036438,6.194e-10,9.2504e-12,1.3392e-14,-1.0103e-08,0.019792,30,0,0,518.6273,2115.3124
0.80833,11.9751,-0.017216,0.01026,0.22253,0.0090544,3.1899e-11,-4.793e-09,90,-5.8537e-13,96.4965,0.13244,3.142e-08,-32.1013,-0.00035739,4.2491e-10,-6.8252e-12,1.3621e-14,-1.0147e-08,0.02,30,0,0,518.6273,2115.3124
0.81666,11.975,-0.016917,0.010082,0.22261,0.0088837,-8.0531e-12,-4.5901e-09,90,-3.8447e-12,96.4871,0.13233,2.9079e-08,-32.1011,-0.00035068,4.5819e-10,2.038e-11,1.3848e-14,-1.0189e-08,0.020208,30,0,0,518.6273,2115.3124
0.825,11.9748,-0.016623,0.0099062,0.22268,0.0087163,-4.6314e-11,-4.3713e-09,90,5.8859e-12,96.4779,0.13223,2.9266e-08,-32.1009,-0.000344,3.6582e-10,4.0239e-12,1.4069e-14,-1.0231e-08,0.020417,30,0,0,518.6273,2115.3124
0.83333,11.9747,-0.016334,0.0097339,0.22275,0.0085521,-8.2742e-11,-4.1967e-09,90,7.8072e-12,96.4686,0.13213,2.7074e-08,-32.1007,-0.00033754,3.6107e-10,-9.7549e-12,1.4287e-14,-1.0273e-08,0.020625,30,0,0,518.6273,2115.3124
0.84166,11.9746,-0.01605,0.0095646,0.22282,0.0083909,-1.1773e-10,-4.0243e-09,90,3.1498e-12,96.4593,0.13203,2.5034e-08,-32.1005,-0.00033115,3.0625e-10,8.7801e-12,1.45e-14,-1.0313e-08,0.020833,30,0,0,518.6273,2115.3124
0.85,11.9744,-0.015772,0.0093982,0.22289,0.0082328,-1.5127e-10,-3.878e-09,90,7.3424e-12,96.4501,0.13193,2.5202e-08,-32.1003,-0.00032494,2.9291e-10,-1.2892e-11,1.4708e-14,-1.0353e-08,0.021042,30,0,0,518.6273,2115.3124
0.85833,11.9743,-0.015498,0.0092347,0.22296,0.0080776,-1.8359e-10,-3.7382e-09,90,1.1874e-12,96.4409,0.13183,2.2896e-08,-32.1001,-0.00031881,2.5555e-10,1.1257e-11,1.4913e-14,-1.0391e-08,0.02125,30,0,0,518.6273,2115.3124
0.86666,11.9742,-0.015228,0.0090741,0.22303,0.0079254,-2.1474e-10,-3.6162e-09,90,6.5627e-12,96.4316,0.13174,2.3575e-08,-32.0999,-0.00031283,2.4011e-10,8.3052e-12,1.5114e-14,-1.043e-08,0.021458,30,0,0,518.6273,2115.3124
0.875,11.9741,-0.014964,0.0089163,0.2231,0.007776,-2.4489e-10,-3.5015e-09,90,1.0529e-11,96.4224,0.13165,2.2609e-08,-32.0997,-0.00030693,2.1832e-10,-8.7448e-12,1.5311e-14,-1.0467e-08,0.021667,30,0,0,518.6273,2115.3124
0.88333,11.9739,-0.014704,0.0087612,0.22316,0.0076295,-2.7406e-10,-3.3973e-09,90,6.3546e-12,96.4132,0.13156,2.0837e-08,-32.0995,-0.00030118,2.0149e-10,2.7407e-12,1.5505e-14,-1.0504e-08,0.021875,30,0,0,518.6273,2115.3125
0.89166,11.9738,-0.014448,0.0086088,0.22323,0.0074857,-3.0238e-10,-3.3011e-09,90,7.6643e-12,96.404,0.13147,2.0899e-08,-32.0993,-0.0002955,1.8624e-10,-3.1169e-12,1.5695e-14,-1.054e-08,0.022083,30,0,0,518.6273,2115.3125
0.9,11.9737,-0.014197,0.0084591,0.22329,0.0073446,-3.2989e-10,-3.2122e-09,90,6.1773e-12,96.3949,0.13139,1.9929e-08,-32.0992,-0.00028997,1.7277e-10,-3.0486e-12,1.5881e-14,-1.0575e-08,0.022292,30,0,0,518.6273,2115.3125
0.90833,11.9736,-0.01395,0.0083119,0.22335,0.0072062,-3.5666e-10,-3.1297e-09,90,4.7231e-12,96.3857,0.1313,1.9371e-08,-32.099,-0.00028453,1.6023e-10,8.926e-13,1.6064e-14,-1.061e-08,0.0225,30,0,0,518.6273,2115.3125
0.91666,11.9735,-0.013708,0.0081674,0.22341,0.0070703,-3.8274e-10,-3.0532e-09,90,5.1507e-12,96.3765,0.13122,1.9096e-08,-32.0988,-0.00027918,1.5021e-10,-2.6042e-12,1.6244e-14,-1.0644e-08,0.022708,30,0,0,518.6273,2115.3125
0.925,11.9733,-0.01347,0.0080253,0.22347,0.006937,-4.0818e-10,-2.9815e-09,90,3.9088e-12,96.3673,0.13114,1.8389e-08,-32.0986,-0.00027394,1.4025e-10,-8.5817e-13,1.642e-14,-1.0677e-08,0.022917,30,0,0,518.6273,2115.3125
0.93333,11.9732,-0.013236,0.0078857,0.22353,0.0068062,-4.3303e-10,-2.9145e-09,90,3.5007e-12,96.3581,0.13106,1.8042e-08,-32.0985,-0.0002688,1.2936e-10,2.1036e-11,1.6594e-14,-1.071e-08,0.023125,30,0,0,518.6273,2115.3125
0.94166,11.9731,-0.013006,0.0077486,0.22358,0.0066779,-4.5732e-10,-2.8527e-09,90,1.3546e-11,96.349,0.13098,1.8987e-08,-32.0983,-0.00026376,1.2541e-10,-1.1562e-12,1.6764e-14,-1.0742e-08,0.023333,30,0,0,518.6273,2115.3125
0.95,11.973,-0.01278,0.0076138,0.22364,0.0065519,-4.8109e-10,-2.7928e-09,90,1.2996e-11,96.3398,0.1309,1.7194e-08,-32.0981,-0.00025881,1.1779e-10,-4.4819e-12,1.6931e-14,-1.0774e-08,0.023542,30,0,0,518.6273,2115.3125
0.95833,11.9729,-0.012558,0.0074813,0.22369,0.0064284,-5.0436e-10,-2.7366e-09,90,1.0858e-11,96.3306,0.13083,1.6604e-08,-32.098,-0.00025396,1.1216e-10,-7.6912e-13,1.7096e-14,-1.0805e-08,0.02375,30,0,0,518.6273,2115.3125
0.96666,11.9728,-0.012339,0.0073512,0.22375,0.0063071,-5.2718e-10,-2.683e-09,90,1.0492e-11,96.3215,0.13075,1.647e-08,-32.0978,-0.00024918,1.0648e-10,-1.3241e-12,1.7257e-14,-1.0835e-08,0.023958,30,0,0,518.6273,2115.3125
0.975,11.9727,-0.012125,0.0072234,0.2238,0.0061881,-5.4954e-10,-2.6322e-09,90,9.8621e-12,96.3123,0.13068,1.6088e-08,-32.0976,-0.00024451,1.0233e-10,-6.0242e-12,1.7416e-14,-1.0865e-08,0.024167,30,0,0,518.6273,2115.3125
0.98333,11.9726,-0.011914,0.0070977,0.22385,0.0060714,-5.7147e-10,-2.5834e-09,90,6.9878e-12,96.3031,0.13061,1.5462e-08,-32.0975,-0.00023991,9.6307e-11,4.4872e-12,1.7571e-14,-1.0894e-08,0.024375,30,0,0,518.6273,2115.3126
0.99166,11.9725,-0.011707,0.0069743,0.2239,0.0059568,-5.93e-10,-2.5374e-09,90,9.1323e-12,96.294,0.13054,1.5804e-08,-32.0973,-0.00023542,9.1995e-11,1.2111e-11,1.7724e-14,-1.0923e-08,0.024583,30,0,0,518.6273,2115.3126
1,11.9724,-0.011504,0.0068529,0.22395,0.0058444,-6.1415e-10,-2.4934e-09,90,1.4917e-11,96.2848,0.13047,1.5979e-08,-32.0972,-0.00023099,9.1665e-11,-1.5172e-11,1.7875e-14,-1.0951e-08,0.024792,30,0,0,518.6273,2115.3126
1.0083,11.9723,-0.011304,0.0067337,0.224,0.0057341,-6.3494e-10,-2.4497e-09,90,7.675e-12,96.2757,0.1304,1.3979e-08,-32.097,-0.00022666,8.4757e-11,5.3621e-12,1.8023e-14,-1.0979e-08,0.025,30,0,0,518.6273,2115.3126
1.0167,11.9722,-0.011108,0.0066166,0.22405,0.0056259,-6.5535e-10,-2.4092e-09,90,1.0237e-11,96.2665,0.13034,1.4984e-08,-32.0969,-0.0002224,8.4954e-11,-7.884e-12,1.8168e-14,-1.1006e-08,0.025208,30,0,0,518.6273,2115.3126
1.025,11.9721,-0.010915,0.0065016,0.22409,0.0055197,-6.7542e-10,-2.3686e-09,90,6.4752e-12,96.2574,0.13027,1.388e-08,-32.0967,-0.00021822,7.943e-11,1.111e-12,1.8311e-14,-1.1032e-08,0.025417,30,0,0,518.6273,2115.3126
1.0333,11.972,-0.010725,0.0063885,0.22414,0.0054155,-6.9516e-10,-2.3307e-09,90,7.008e-12,96.2483,0.13021,1.4183e-08,-32.0966,-0.00021413,7.6778e-11,1.281e-11,1.8451e-14,-1.1058e-08,0.025625,30,0,0,518.6273,2115.3126
1.0417,11.9719,-0.010539,0.0062774,0.22418,0.0053133,-7.1458e-10,-2.294e-09,90,1.3127e-11,96.2391,0.13014,1.4661e-08,-32.0964,-0.00021012,7.5234e-11,3.126e-12,1.8589e-14,-1.1084e-08,0.025833,30,0,0,518.6273,2115.3126
1.05,11.9719,-0.010355,0.0061682,0.22423,0.005213,-7.3371e-10,-2.2581e-09,90,1.4621e-11,96.23,0.13008,1.3812e-08,-32.0963,-0.00020618,7.4703e-11,-1.1283e-11,1.8724e-14,-1.1109e-08,0.026042,30,0,0,518.6273,2115.3126
1.0583,11.9718,-0.010175,0.0060609,0.22427,0.0051145,-7.5254e-10,-2.2225e-09,90,9.2363e-12,96.2208,0.13002,1.2669e-08,-32.0961,-0.0002023,6.9638e-11,9.5469e-12,1.8857e-14,-1.1134e-08,0.02625,30,0,0,518.6273,2115.3126
1.0667,11.9717,-0.0099986,0.0059555,0.22432,0.0050179,-7.7105e-10,-2.1892e-09,90,1.3797e-11,96.2117,0.12996,1.3742e-08,-32.096,-0.0001985,7.2199e-11,-1.7306e-11,1.8988e-14,-1.1158e-08,0.026458,30,0,0,518.6273,2115.3126
1.075,11.9716,-0.0098249,0.0058519,0.22436,0.0049232,-7.893e-10,-2.1548e-09,90,5.5362e-12,96.2026,0.12991,1.1831e-08,-32.0959,-0.00019476,6.474e-11,1.2895e-11,1.9116e-14,-1.1181e-08,0.026667,30,0,0,518.6273,2115.3126
1.0833,11.9715,-0.0096542,0.0057501,0.2244,0.0048302,-8.0725e-10,-2.1238e-09,90,1.1696e-11,96.1934,0.12985,1.3504e-08,-32.0957,-0.0001911,6.7424e-11,-2.4504e-12,1.9243e-14,-1.1205e-08,0.026875,30,0,0,518.6273,2115.3126
1.0917,11.9714,-0.0094864,0.0056501,0.22444,0.0047389,-8.2496e-10,-2.0916e-09,90,1.0528e-11,96.1843,0.12979,1.2326e-08,-32.0956,-0.00018752,6.3536e-11,-2.2214e-12,1.9367e-14,-1.1228e-08,0.027083,30,0,0,518.6273,2115.3126
1.1,11.9714,-0.0093216,0.0055519,0.22448,0.0046494,-8.4239e-10,-2.0613e-09,90,9.4697e-12,96.1752,0.12974,1.2133e-08,-32.0955,-0.000184,6.3724e-11,-4.3609e-12,1.9489e-14,-1.125e-08,0.027292,30,0,0,518.6273,2115.3127
1.1083,11.9713,-0.0091596,0.0054553,0.22452,0.0045616,-8.5957e-10,-2.0309e-09,90,7.39e-12,96.166,0.12968,1.1792e-08,-32.0954,-0.00018053,5.8329e-11,1.9553e-11,1.9609e-14,-1.1272e-08,0.0275,30,0,0,518.6273,2115.3127
1.1167,11.9712,-0.0090004,0.0053604,0.22455,0.0044754,-8.7649e-10,-2.003e-09,90,1.6728e-11,96.1569,0.12963,1.3093e-08,-32.0952,-0.00017715,6.3506e-11,-2.0043e-11,1.9727e-14,-1.1293e-08,0.027708,30,0,0,518.6273,2115.3127
1.125,11.9711,-0.008844,0.0052672,0.22459,0.0043908,-8.9318e-10,-1.9727e-09,90,7.1606e-12,96.1478,0.12958,1.0415e-08,-32.0951,-0.00017381,5.6571e-11,3.6312e-12,1.9842e-14,-1.1315e-08,0.027917,30,0,0,518.6273,2115.3127
1.1333,11.9711,-0.0086904,0.0051755,0.22463,0.0043078,-9.0962e-10,-1.9457e-09,90,8.8969e-12,96.1387,0.12953,1.1708e-08,-32.095,-0.00017056,6.9098e-11,-8.5499e-11,1.9956e-14,-1.1335e-08,0.028125,30,0,0,518.6273,2115.3127
1.1417,11.971,-0.0085393,0.0050855,0.22466,0.0042263,-9.2584e-10,-1.9129e-09,90,-3.1924e-11,96.1295,0.12948,5.9229e-09,-32.0949,-0.00016734,3.9051e-11,1.0113e-10,2.0068e-14,-1.1356e-08,0.028333,30,0,0,518.6273,2115.3127
1.15,11.9709,-0.008391,0.0049971,0.2247,0.0041464,-9.4178e-10,-1.894e-09,90,1.6364e-11,96.1204,0.12943,1.7437e-08,-32.0948,-0.0001642,7.3739e-11,-9.7391e-11,2.0178e-14,-1.1376e-08,0.028542,30,0,0,518.6273,2115.3127
1.1583,11.9709,-0.0082452,0.0049102,0.22473,0.0040681,-9.5756e-10,-1.859e-09,90,-3.0135e-11,96.1113,0.12938,4.8113e-09,-32.0946,-0.00016111,3.3269e-11,9.3117e-11,2.0286e-14,-1.1395e-08,0.02875,30,0,0,518.6273,2115.3127
1.1667,11.9708,-0.0081019,0.0048247,0.22477,0.0039911,-9.7306e-10,-1.8429e-09,90,1.4328e-11,96.1022,0.12934,1.6589e-08,-32.0945,-0.00015808,5.0078e-09,-7.0407e-11,2.0392e-14,-1.1414e-08,0.028958,30,0,0,518.6273,2115.3127
1.175,11.9707,-0.0079611,0.0047408,0.2248,0.0039156,-9.8842e-10,5.4796e-10,90,-1.9287e-11,96.0931,0.12929,1.1001e-07,-32.0944,-0.00015512,5.8527e-10,-1.5877e-12,2.0497e-14,-1.1433e-08,0.029167,30,0,0,518.6273,2115.3127
1.1833,11.9707,-0.0078228,0.0046584,0.22483,0.0038416,-9.8385e-10,8.274e-10,90,-2.0044e-11,96.084,0.12924,-7.7977e-09,-32.0943,-0.00015219,7.5254e-09,4.3078e-11,2.0567e-14,-1.1452e-08,0.029375,30,0,0,518.6273,2115.3127
1.1917,11.9706,-0.0076868,0.0045774,0.22487,0.0037689,-9.7696e-10,4.4206e-09,90,5.2531e-13,96.0748,0.1292,2.1118e-07,-32.0942,-0.00014933,1.4415e-09,9.0513e-12,2.0682e-14,-1.147e-08,0.029583,30,0,0,518.6273,2115.3127
1.2,11.9705,-0.0075532,0.0044978,0.2249,0.0036976,-9.4013e-10,5.1088e-09,90,4.8452e-12,96.0657,0.12916,-3.6761e-08,-32.0941,-0.00014652,-5.731e-09,-3.8561e-11,2.0696e-14,-1.1488e-08,0.029792,30,0,0,518.6273,2115.3127
1.2083,11.9705,-0.007422,0.0044195,0.22493,0.0036277,-8.9755e-10,2.3724e-09,90,-1.3569e-11,96.0566,0.12911,-1.9004e-08,-32.094,-0.00014377,6.5555e-10,2.0135e-11,2.0822e-14,-1.1505e-08,0.03,30,0,0,518.6273,2115.3127
1.2167,11.9704,-0.007293,0.0043426,0.22496,0.003559,-8.7779e-10,2.6855e-09,90,-3.9552e-12,96.0475,0.12907,-1.9219e-08,-32.0939,-0.00014106,-2.4227e-09,-3.1006e-11,2.0866e-14,-1.1522e-08,0.030208,30,0,0,518.6273,2115.3127
1.225,11.9703,-0.0071663,0.0042671,0.22499,0.0034917,-8.5541e-10,1.5286e-09,90,-1.876e-11,96.0384,0.12903,-1.3633e-08,-32.0938,-0.00013841,-9.4485e-11,1.2757e-11,2.0962e-14,-1.1539e-08,0.030417,30,0,0,518.6273,2115.3127
1.2333,11.9703,-0.0070417,0.0041928,0.22502,0.0034256,-8.4268e-10,1.4835e-09,90,-1.2669e-11,96.0293,0.12899,-1.1224e-08,-32.0937,-0.0001358,-1.2581e-09,3.624e-12,2.1027e-14,-1.1556e-08,0.030625,30,0,0,518.6273,2115.3127
1.2417,11.9702,-0.0069194,0.00412,0.22505,0.0033607,-8.3031e-10,8.8284e-10,90,-1.0939e-11,96.0202,0.12895,-7.3538e-09,-32.0936,-0.00013325,-3.4072e-10,-1.6677e-11,2.1112e-14,-1.1572e-08,0.030833,30,0,0,518.6273,2115.3127
1.25,11.9702,-0.0067991,0.0040483,0.22507,0.0032971,-8.2296e-10,7.2013e-10,90,-1.8902e-11,96.0111,0.12891,-7.7501e-09,-32.0935,-0.00013075,-7.4878e-10,2.0919e-12,2.1185e-14,-1.1588e-08,0.031042,30,0,0,518.6273,2115.3127
1.2582,11.9702,-0.0067991,0.0040483,0.22507,0.0032971,-8.2296e-10,7.2013e-10,90,-1.8902e-11,96.0111,0.12891,-7.7501e-09,-32.0935,-0.00013075,-7.4878e-10,2.0919e-12,2.1185e-14,-1.1588e-08,0.031042,30,0,0,518.6273,2115.3127
1.2582,11.9702,-0.0067991,0.0040483,0.22507,0.0032971,-8.2296e-10,7.2013e-10,90,-1.8902e-11,96.0111,0.12891,-7.7501e-09,-32.0935,-0.00013075,-7.4878e-10,2.0919e-12,2.1185e-14,-1.1588e-08,0.031042,30,0,0,518.6273,2115.3127
1.2583,11.9701,-0.006681,0.0039779,0.2251,0.0032347,-8.1695e-10,3.6262e-10,90,-1.7902e-11,96.002,0.12887,-4.0148e-09,-32.0934,-0.00012828,-3.6359e-10,-5.948e-12,2.1266e-14,-1.1603e-08,0.03125,30,0,0,518.6273,2115.3127
1.2588,11.9701,-0.006681,0.0039779,0.2251,0.0032347,-8.1695e-10,3.6262e-10,90,-1.7902e-11,96.002,0.12887,-4.0148e-09,-32.0934,-0.00012828,-3.6359e-10,-5.948e-12,2.1266e-14,-1.1603e-08,0.03125,30,0,0,518.6273,2115.3127
1.2613,11.9701,-0.006681,0.0039779,0.2251,0.0032347,-8.1695e-10,3.6262e-10,90,-1.7902e-11,96.002,0.12887,-4.0148e-09,-32.0934,-0.00012828,-3.6359e-10,-5.948e-12,2.1266e-14,-1.1603e-08,0.03125,30,0,0,518.6273,2115.3127
1.2665,11.9701,-0.006681,0.0039779,0.2251,0.0032347,-8.1695e-10,3.6262e-10,90,-1.7902e-11,96.002,0.12887,-4.0148e-09,-32.0934,-0.00012828,-3.6359e-10,-5.948e-12,2.1266e-14,-1.1603e-08,0.03125,30,0,0,518.6273,2115.3127
1.2665,11.9701,-0.006681,0.0039779,0.2251,0.0032347,-8.1695e-10,3.6262e-10,90,-1.7902e-11,96.002,0.12887,-4.0148e-09,-32.0934,-0.00012828,-3.6359e-10,-5.948e-12,2.1266e-14,-1.1603e-08,0.03125,30,0,0,518.6273,2115.3127
1.2667,11.9701,-0.0065649,0.0039087,0.22513,0.0031734,-8.1394e-10,1.89e-10,90,-2.0742e-11,95.9929,0.12883,-3.428e-09,-32.0933,-0.00012587,4.448e-09,1.9608e-11,2.1342e-14,-1.1618e-08,0.031458,30,0,0,518.6273,2115.3128
1.2677,11.9701,-0.0065649,0.0039087,0.22513,0.0031734,-8.1394e-10,1.89e-10,90,-2.0742e-11,95.9929,0.12883,-3.428e-09,-32.0933,-0.00012587,4.448e-09,1.9608e-11,2.1342e-14,-1.1618e-08,0.031458,30,0,0,518.6273,2115.3128
1.2727,11.9701,-0.0065649,0.0039087,0.22513,0.0031734,-8.1394e-10,1.89e-10,90,-2.0742e-11,95.9929,0.12883,-3.428e-09,-32.0933,-0.00012587,4.448e-09,1.9608e-11,2.1342e-14,-1.1618e-08,0.031458,30,0,0,518.6273,2115.3128
1.2747,11.9701,-0.0065649,0.0039087,0.22513,0.0031734,-8.1394e-10,1.89e-10,90,-2.0742e-11,95.9929,0.12883,-3.428e-09,-32.0933,-0.00012587,4.448e-09,1.9608e-11,2.1342e-14,-1.1618e-08,0.031458,30,0,0,518.6273,2115.3128
1.2747,11.9701,-0.0065649,0.0039087,0.22513,0.0031734,-8.1394e-10,1.89e-10,90,-2.0742e-11,95.9929,0.12883,-3.428e-09,-32.0933,-0.00012587,4.448e-09,1.9608e-11,2.1342e-14,-1.1618e-08,0.031458,30,0,0,518.6273,2115.3128
1.275,11.97,-0.0064508,0.0038407,0.22515,0.0031133,-8.1236e-10,2.3128e-09,90,-1.1379e-11,95.9838,0.1288,1.0366e-07,-32.0932,-0.0001235,2.3136e-10,-4.8334e-13,2.142e-14,-1.1633e-08,0.031667,30,0,0,518.6273,2115.3128
1.2765,11.97,-0.0064508,0.0038407,0.22515,0.0031133,-8.1236e-10,2.3128e-09,90,-1.1379e-11,95.9838,0.1288,1.0366e-07,-32.0932,-0.0001235,2.3136e-10,-4.8334e-13,2.142e-14,-1.1633e-08,0.031667,30,0,0,518.6273,2115.3128
1.2829,11.97,-0.0064508,0.0038407,0.22515,0.0031133,-8.1236e-10,2.3128e-09,90,-1.1379e-11,95.9838,0.1288,1.0366e-07,-32.0932,-0.0001235,2.3136e-10,-4.8334e-13,2.142e-14,-1.1633e-08,0.031667,30,0,0,518.6273,2115.3128
1.2829,11.97,-0.0064508,0.0038407,0.22515,0.0031133,-8.1236e-10,2.3128e-09,90,-1.1379e-11,95.9838,0.1288,1.0366e-07,-32.0932,-0.0001235,2.3136e-10,-4.8334e-13,2.142e-14,-1.1633e-08,0.031667,30,0,0,518.6273,2115.3128
1.2833,11.97,-0.0063387,0.0037739,0.22518,0.0030544,-7.9309e-10,2.4233e-09,90,-1.1611e-11,95.9747,0.12876,-1.8589e-08,-32.0931,-0.00012118,-2.7325e-09,-1.3269e-11,2.1464e-14,-1.1648e-08,0.031875,30,0,0,518.6273,2115.3128
1.2854,11.97,-0.0063387,0.0037739,0.22518,0.0030544,-7.9309e-10,2.4233e-09,90,-1.1611e-11,95.9747,0.12876,-1.8589e-08,-32.0931,-0.00012118,-2.7325e-09,-1.3269e-11,2.1464e-14,-1.1648e-08,0.031875,30,0,0,518.6273,2115.3128
1.2912,11.97,-0.0063387,0.0037739,0.22518,0.0030544,-7.9309e-10,2.4233e-09,90,-1.1611e-11,95.9747,0.12876,-1.8589e-08,-32.0931,-0.00012118,-2.7325e-09,-1.3269e-11,2.1464e-14,-1.1648e-08,0.031875,30,0,0,518.6273,2115.3128
1.2912,11.97,-0.0063387,0.0037739,0.22518,0.0030544,-7.9309e-10,2.4233e-09,90,-1.1611e-11,95.9747,0.12876,-1.8589e-08,-32.0931,-0.00012118,-2.7325e-09,-1.3269e-11,2.1464e-14,-1.1648e-08,0.031875,30,0,0,518.6273,2115.3128
1.2917,11.9699,-0.0062285,0.0037083,0.22521,0.0029965,-7.7289e-10,1.1186e-09,90,-1.7947e-11,95.9656,0.12872,-9.6256e-09,-32.093,-0.00011889,6.3587e-11,3.402e-12,2.1554e-14,-1.1663e-08,0.032083,30,0,0,518.6273,2115.3128
1.2942,11.9699,-0.0062285,0.0037083,0.22521,0.0029965,-7.7289e-10,1.1186e-09,90,-1.7947e-11,95.9656,0.12872,-9.6256e-09,-32.093,-0.00011889,6.3587e-11,3.402e-12,2.1554e-14,-1.1663e-08,0.032083,30,0,0,518.6273,2115.3128
1.2994,11.9699,-0.0062285,0.0037083,0.22521,0.0029965,-7.7289e-10,1.1186e-09,90,-1.7947e-11,95.9656,0.12872,-9.6256e-09,-32.093,-0.00011889,6.3587e-11,3.402e-12,2.1554e-14,-1.1663e-08,0.032083,30,0,0,518.6273,2115.3128
1.2994,11.9699,-0.0062285,0.0037083,0.22521,0.0029965,-7.7289e-10,1.1186e-09,90,-1.7947e-11,95.9656,0.12872,-9.6256e-09,-32.093,-0.00011889,6.3587e-11,3.402e-12,2.1554e-14,-1.1663e-08,0.032083,30,0,0,518.6273,2115.3128
1.3,11.9698,-0.0061203,0.0036437,0.22523,0.0029397,-7.6358e-10,1.149e-09,90,-1.6323e-11,95.9566,0.12869,-9.5514e-09,-32.0929,-0.00011665,-1.2198e-09,-8.6093e-12,2.1608e-14,-1.1677e-08,0.032292,30,0,0,518.6273,2115.3128
1.3031,11.9698,-0.0061203,0.0036437,0.22523,0.0029397,-7.6358e-10,1.149e-09,90,-1.6323e-11,95.9566,0.12869,-9.5514e-09,-32.0929,-0.00011665,-1.2198e-09,-8.6093e-12,2.1608e-14,-1.1677e-08,0.032292,30,0,0,518.6273,2115.3128
1.3076,11.9698,-0.0061203,0.0036437,0.22523,0.0029397,-7.6358e-10,1.149e-09,90,-1.6323e-11,95.9566,0.12869,-9.5514e-09,-32.0929,-0.00011665,-1.2198e-09,-8.6093e-12,2.1608e-14,-1.1677e-08,0.032292,30,0,0,518.6273,2115.3128
1.3076,11.9698,-0.0061203,0.0036437,0.22523,0.0029397,-7.6358e-10,1.149e-09,90,-1.6323e-11,95.9566,0.12869,-9.5514e-09,-32.0929,-0.00011665,-1.2198e-09,-8.6093e-12,2.1608e-14,-1.1677e-08,0.032292,30,0,0,518.6273,2115.3128
1.3083,11.9698,-0.0060139,0.0035804,0.22526,0.0028841,-7.54e-10,5.6655e-10,90,-2.0434e-11,95.9475,0.12866,-5.9535e-09,-32.0928,-0.00011446,-1.9242e-10,1.5743e-12,2.1685e-14,-1.1691e-08,0.0325,30,0,0,518.6273,2115.3128
1.3119,11.9698,-0.0060139,0.0035804,0.22526,0.0028841,-7.54e-10,5.6655e-10,90,-2.0434e-11,95.9475,0.12866,-5.9535e-09,-32.0928,-0.00011446,-1.9242e-10,1.5743e-12,2.1685e-14,-1.1691e-08,0.0325,30,0,0,518.6273,2115.3128
1.3159,11.9698,-0.0060139,0.0035804,0.22526,0.0028841,-7.54e-10,5.6655e-10,90,-2.0434e-11,95.9475,0.12866,-5.9535e-09,-32.0928,-0.00011446,-1.9242e-10,1.5743e-12,2.1685e-14,-1.1691e-08,0.0325,30,0,0,518.6273,2115.3128
1.3159,11.9698,-0.0060139,0.0035804,0.22526,0.0028841,-7.54e-10,5.6655e-10,90,-2.0434e-11,95.9475,0.12866,-5.9535e-09,-32.0928,-0.00011446,-1.9242e-10,1.5743e-12,2.1685e-14,-1.1691e-08,0.0325,30,0,0,518.6273,2115.3128
1.3167,11.9697,-0.0059094,0.0035181,0.22528,0.0028294,-7.4927e-10,4.7468e-10,90,-1.9682e-11,95.9384,0.12862,-4.9658e-09,-32.0927,-0.0001123,9.2012e-09,3.5012e-11,2.1748e-14,-1.1704e-08,0.032708,30,0,0,518.6273,2115.3128
1.3207,11.9697,-0.0059094,0.0035181,0.22528,0.0028294,-7.4927e-10,4.7468e-10,90,-1.9682e-11,95.9384,0.12862,-4.9658e-09,-32.0927,-0.0001123,9.2012e-09,3.5012e-11,2.1748e-14,-1.1704e-08,0.032708,30,0,0,518.6273,2115.3128
1.3241,11.9697,-0.0059094,0.0035181,0.22528,0.0028294,-7.4927e-10,4.7468e-10,90,-1.9682e-11,95.9384,0.12862,-4.9658e-09,-32.0927,-0.0001123,9.2012e-09,3.5012e-11,2.1748e-14,-1.1704e-08,0.032708,30,0,0,518.6273,2115.3128
1.3241,11.9697,-0.0059094,0.0035181,0.22528,0.0028294,-7.4927e-10,4.7468e-10,90,-1.9682e-11,95.9384,0.12862,-4.9658e-09,-32.0927,-0.0001123,9.2012e-09,3.5012e-11,2.1748e-14,-1.1704e-08,0.032708,30,0,0,518.6273,2115.3128
1.325,11.9697,-0.0058067,0.0034568,0.2253,0.0027758,-7.4532e-10,4.868e-09,90,-2.9646e-12,95.9293,0.12859,2.0717e-07,-32.0927,-0.0001102,8.2867e-10,2.2888e-13,2.182e-14,-1.1718e-08,0.032917,30,0,0,518.6273,2115.3128
1.3295,11.9697,-0.0058067,0.0034568,0.2253,0.0027758,-7.4532e-10,4.868e-09,90,-2.9646e-12,95.9293,0.12859,2.0717e-07,-32.0927,-0.0001102,8.2867e-10,2.2888e-13,2.182e-14,-1.1718e-08,0.032917,30,0,0,518.6273,2115.3128
1.3323,11.9697,-0.0058067,0.0034568,0.2253,0.0027758,-7.4532e-10,4.868e-09,90,-2.9646e-12,95.9293,0.12859,2.0717e-07,-32.0927,-0.0001102,8.2867e-10,2.2888e-13,2.182e-14,-1.1718e-08,0.032917,30,0,0,518.6273,2115.3128
1.3323,11.9697,-0.0058067,0.0034568,0.2253,0.0027758,-7.4532e-10,4.868e-09,90,-2.9646e-12,95.9293,0.12859,2.0717e-07,-32.0927,-0.0001102,8.2867e-10,2.2888e-13,2.182e-14,-1.1718e-08,0.032917,30,0,0,518.6273,2115.3128
1.3333,11.9697,-0.0057058,0.0033968,0.22533,0.0027232,-7.0476e-10,5.2636e-09,90,-2.8587e-12,95.9202,0.12856,-3.8209e-08,-32.0926,-0.00010812,-2.7878e-10,3.7049e-12,2.1821e-14,-1.1731e-08,0.033125,30,0,0,518.6273,2115.3128
1.3383,11.9697,-0.0057058,0.0033968,0.22533,0.0027232,-7.0476e-10,5.2636e-09,90,-2.8587e-12,95.9202,0.12856,-3.8209e-08,-32.0926,-0.00010812,-2.7878e-10,3.7049e-12,2.1821e-14,-1.1731e-08,0.033125,30,0,0,518.6273,2115.3128
1.3405,11.9697,-0.0057058,0.0033968,0.22533,0.0027232,-7.0476e-10,5.2636e-09,90,-2.8587e-12,95.9202,0.12856,-3.8209e-08,-32.0926,-0.00010812,-2.7878e-10,3.7049e-12,2.1821e-14,-1.1731e-08,0.033125,30,0,0,518.6273,2115.3128
1.3405,11.9697,-0.0057058,0.0033968,0.22533,0.0027232,-7.0476e-10,5.2636e-09,90,-2.8587e-12,95.9202,0.12856,-3.8209e-08,-32.0926,-0.00010812,-2.7878e-10,3.7049e-12,2.1821e-14,-1.1731e-08,0.033125,30,0,0,518.6273,2115.3128
1.3417,11.9696,-0.0056066,0.0033377,0.22535,0.0026715,-6.6089e-10,5.1305e-09,90,-1.0934e-12,95.9112,0.12852,8.4602e-08,-32.0925,-0.00010608,9.264e-10,-2.0711e-12,2.1917e-14,-1.1744e-08,0.033333,30,0,0,518.6273,2115.3128
1.3472,11.9696,-0.0056066,0.0033377,0.22535,0.0026715,-6.6089e-10,5.1305e-09,90,-1.0934e-12,95.9112,0.12852,8.4602e-08,-32.0925,-0.00010608,9.264e-10,-2.0711e-12,2.1917e-14,-1.1744e-08,0.033333,30,0,0,518.6273,2115.3128
1.3488,11.9696,-0.0056066,0.0033377,0.22535,0.0026715,-6.6089e-10,5.1305e-09,90,-1.0934e-12,95.9112,0.12852,8.4602e-08,-32.0925,-0.00010608,9.264e-10,-2.0711e-12,2.1917e-14,-1.1744e-08,0.033333,30,0,0,518.6273,2115.3128
1.3488,11.9696,-0.0056066,0.0033377,0.22535,0.0026715,-6.6089e-10,5.1305e-09,90,-1.0934e-12,95.9112,0.12852,8.4602e-08,-32.0925,-0.00010608,9.264e-10,-2.0711e-12,2.1917e-14,-1.1744e-08,0.033333,30,0,0,518.6273,2115.3128
1.35,11.9696,-0.0055092,0.0032796,0.22537,0.0026209,-6.1814e-10,5.5728e-09,90,-2.086e-12,95.9021,0.12849,-4.0502e-08,-32.0924,-0.00010409,-4.6476e-09,-1.5836e-11,2.191e-14,-1.1756e-08,0.033542,30,0,0,518.6273,2115.3128
1.356,11.9696,-0.0055092,0.0032796,0.22537,0.0026209,-6.1814e-10,5.5728e-09,90,-2.086e-12,95.9021,0.12849,-4.0502e-08,-32.0924,-0.00010409,-4.6476e-09,-1.5836e-11,2.191e-14,-1.1756e-08,0.033542,30,0,0,518.6273,2115.3128
1.357,11.9696,-0.0055092,0.0032796,0.22537,0.0026209,-6.1814e-10,5.5728e-09,90,-2.086e-12,95.9021,0.12849,-4.0502e-08,-32.0924,-0.00010409,-4.6476e-09,-1.5836e-11,2.191e-14,-1.1756e-08,0.033542,30,0,0,518.6273,2115.3128
1.357,11.9696,-0.0055092,0.0032796,0.22537,0.0026209,-6.1814e-10,5.5728e-09,90,-2.086e-12,95.9021,0.12849,-4.0502e-08,-32.0924,-0.00010409,-4.6476e-09,-1.5836e-11,2.191e-14,-1.1756e-08,0.033542,30,0,0,518.6273,2115.3128
1.3583,11.9695,-0.0054135,0.0032226,0.22539,0.0025712,-5.7169e-10,3.3537e-09,90,-9.6513e-12,95.893,0.12846,-2.4613e-08,-32.0923,-0.00010212,1.0453e-10,1.4489e-12,2.1994e-14,-1.1769e-08,0.03375,30,0,0,518.6273,2115.3128
1.3648,11.9695,-0.0054135,0.0032226,0.22539,0.0025712,-5.7169e-10,3.3537e-09,90,-9.6513e-12,95.893,0.12846,-2.4613e-08,-32.0923,-0.00010212,1.0453e-10,1.4489e-12,2.1994e-14,-1.1769e-08,0.03375,30,0,0,518.6273,2115.3128
1.3653,11.9695,-0.0054135,0.0032226,0.22539,0.0025712,-5.7169e-10,3.3537e-09,90,-9.6513e-12,95.893,0.12846,-2.4613e-08,-32.0923,-0.00010212,1.0453e-10,1.4489e-12,2.1994e-14,-1.1769e-08,0.03375,30,0,0,518.6273,2115.3128
1.3653,11.9695,-0.0054135,0.0032226,0.22539,0.0025712,-5.7169e-10,3.3537e-09,90,-9.6513e-12,95.893,0.12846,-2.4613e-08,-32.0923,-0.00010212,1.0453e-10,1.4489e-12,2.1994e-14,-1.1769e-08,0.03375,30,0,0,518.6273,2115.3128
1.3667,11.9695,-0.0053194,0.0031665,0.22541,0.0025224,-5.4375e-10,3.4037e-09,90,-8.9619e-12,95.8839,0.12843,-2.5166e-08,-32.0923,-0.0001002,-2.1827e-09,-1.2663e-11,2.2018e-14,-1.1781e-08,0.033958,30,0,0,518.6273,2115.3128
1.3735,11.9695,-0.0053194,0.0031665,0.22541,0.0025224,-5.4375e-10,3.4037e-09,90,-8.9619e-12,95.8839,0.12843,-2.5166e-08,-32.0923,-0.0001002,-2.1827e-09,-1.2663e-11,2.2018e-14,-1.1781e-08,0.033958,30,0,0,518.6273,2115.3128
1.3735,11.9695,-0.0053194,0.0031665,0.22541,0.0025224,-5.4375e-10,3.4037e-09,90,-8.9619e-12,95.8839,0.12843,-2.5166e-08,-32.0923,-0.0001002,-2.1827e-09,-1.2663e-11,2.2018e-14,-1.1781e-08,0.033958,30,0,0,518.6273,2115.3128
1.375,11.9694,-0.0052269,0.0031114,0.22544,0.0024746,-5.1539e-10,2.3615e-09,90,-1.501e-11,95.8748,0.1284,-1.8269e-08,-32.0922,-9.8306e-05,-3.9845e-10,4.6915e-12,2.2082e-14,-1.1793e-08,0.034167,30,0,0,518.6273,2115.3128
1.3817,11.9694,-0.0052269,0.0031114,0.22544,0.0024746,-5.1539e-10,2.3615e-09,90,-1.501e-11,95.8748,0.1284,-1.8269e-08,-32.0922,-9.8306e-05,-3.9845e-10,4.6915e-12,2.2082e-14,-1.1793e-08,0.034167,30,0,0,518.6273,2115.3128
1.3817,11.9694,-0.0052269,0.0031114,0.22544,0.0024746,-5.1539e-10,2.3615e-09,90,-1.501e-11,95.8748,0.1284,-1.8269e-08,-32.0922,-9.8306e-05,-3.9845e-10,4.6915e-12,2.2082e-14,-1.1793e-08,0.034167,30,0,0,518.6273,2115.3128
1.3833,11.9694,-0.0051361,0.0030573,0.22546,0.0024277,-4.9572e-10,2.1712e-09,90,-1.2772e-11,95.8658,0.12837,-1.6364e-08,-32.0921,-9.6457e-05,-1.2346e-09,1.0555e-11,2.2124e-14,-1.1804e-08,0.034375,30,0,0,518.6273,2115.3128
1.39,11.9694,-0.0051361,0.0030573,0.22546,0.0024277,-4.9572e-10,2.1712e-09,90,-1.2772e-11,95.8658,0.12837,-1.6364e-08,-32.0921,-9.6457e-05,-1.2346e-09,1.0555e-11,2.2124e-14,-1.1804e-08,0.034375,30,0,0,518.6273,2115.3128
1.39,11.9694,-0.0051361,0.0030573,0.22546,0.0024277,-4.9572e-10,2.1712e-09,90,-1.2772e-11,95.8658,0.12837,-1.6364e-08,-32.0921,-9.6457e-05,-1.2346e-09,1.0555e-11,2.2124e-14,-1.1804e-08,0.034375,30,0,0,518.6273,2115.3128
1.3917,11.9693,-0.0050468,0.0030041,0.22548,0.0023816,-4.7762e-10,1.5818e-09,90,-7.7335e-12,95.8567,0.12835,-1.1725e-08,-32.092,-9.464e-05,-5.082e-10,-1.8191e-11,2.2181e-14,-1.1816e-08,0.034583,30,0,0,518.6273,2115.3128
1.3982,11.9693,-0.0050468,0.0030041,0.22548,0.0023816,-4.7762e-10,1.5818e-09,90,-7.7335e-12,95.8567,0.12835,-1.1725e-08,-32.092,-9.464e-05,-5.082e-10,-1.8191e-11,2.2181e-14,-1.1816e-08,0.034583,30,0,0,518.6273,2115.3128
1.3982,11.9693,-0.0050468,0.0030041,0.22548,0.0023816,-4.7762e-10,1.5818e-09,90,-7.7335e-12,95.8567,0.12835,-1.1725e-08,-32.092,-9.464e-05,-5.082e-10,-1.8191e-11,2.2181e-14,-1.1816e-08,0.034583,30,0,0,518.6273,2115.3128
1.4,11.9693,-0.0049591,0.0029519,0.2255,0.0023364,-4.6444e-10,1.3391e-09,90,-1.642e-11,95.8476,0.12832,-1.2047e-08,-32.092,-9.2855e-05,-7.8548e-10,1.33e-11,2.223e-14,-1.1827e-08,0.034792,30,0,0,518.6273,2115.3128
1.4064,11.9693,-0.0049591,0.0029519,0.2255,0.0023364,-4.6444e-10,1.3391e-09,90,-1.642e-11,95.8476,0.12832,-1.2047e-08,-32.092,-9.2855e-05,-7.8548e-10,1.33e-11,2.223e-14,-1.1827e-08,0.034792,30,0,0,518.6273,2115.3128
1.4064,11.9693,-0.0049591,0.0029519,0.2255,0.0023364,-4.6444e-10,1.3391e-09,90,-1.642e-11,95.8476,0.12832,-1.2047e-08,-32.092,-9.2855e-05,-7.8548e-10,1.33e-11,2.223e-14,-1.1827e-08,0.034792,30,0,0,518.6273,2115.3128
1.4083,11.9693,-0.0048729,0.0029006,0.22552,0.0022921,-4.5328e-10,9.6408e-10,90,-1.0071e-11,95.8385,0.12829,-7.4337e-09,-32.0919,-9.1105e-05,-4.6369e-10,-1.8423e-11,2.2285e-14,-1.1838e-08,0.035,30,0,0,518.6273,2115.3128
1.4146,11.9693,-0.0048729,0.0029006,0.22552,0.0022921,-4.5328e-10,9.6408e-10,90,-1.0071e-11,95.8385,0.12829,-7.4337e-09,-32.0919,-9.1105e-05,-4.6369e-10,-1.8423e-11,2.2285e-14,-1.1838e-08,0.035,30,0,0,518.6273,2115.3128
1.4146,11.9693,-0.0048729,0.0029006,0.22552,0.0022921,-4.5328e-10,9.6408e-10,90,-1.0071e-11,95.8385,0.12829,-7.4337e-09,-32.0919,-9.1105e-05,-4.6369e-10,-1.8423e-11,2.2285e-14,-1.1838e-08,0.035,30,0,0,518.6273,2115.3128
1.4167,11.9692,-0.0047882,0.0028501,0.22553,0.0022486,-4.4525e-10,7.4265e-10,90,-1.8868e-11,95.8295,0.12826,-7.9779e-09,-32.0918,-8.9389e-05,-5.3705e-10,1.4118e-11,2.2337e-14,-1.1849e-08,0.035208,30,0,0,518.6273,2115.3128
1.4229,11.9692,-0.0047882,0.0028501,0.22553,0.0022486,-4.4525e-10,7.4265e-10,90,-1.8868e-11,95.8295,0.12826,-7.9779e-09,-32.0918,-8.9389e-05,-5.3705e-10,1.4118e-11,2.2337e-14,-1.1849e-08,0.035208,30,0,0,518.6273,2115.3128
1.4229,11.9692,-0.0047882,0.0028501,0.22553,0.0022486,-4.4525e-10,7.4265e-10,90,-1.8868e-11,95.8295,0.12826,-7.9779e-09,-32.0918,-8.9389e-05,-5.3705e-10,1.4118e-11,2.2337e-14,-1.1849e-08,0.035208,30,0,0,518.6273,2115.3128
1.425,11.9692,-0.004705,0.0028005,0.22555,0.0022059,-4.3906e-10,4.8626e-10,90,-1.2127e-11,95.8204,0.12824,-4.1687e-09,-32.0917,-8.7697e-05,-3.7816e-10,-1.5737e-11,2.2391e-14,-1.186e-08,0.035417,30,0,0,518.6273,2115.3128
1.4311,11.9692,-0.004705,0.0028005,0.22555,0.0022059,-4.3906e-10,4.8626e-10,90,-1.2127e-11,95.8204,0.12824,-4.1687e-09,-32.0917,-8.7697e-05,-3.7816e-10,-1.5737e-11,2.2391e-14,-1.186e-08,0.035417,30,0,0,518.6273,2115.3128
1.4311,11.9692,-0.004705,0.0028005,0.22555,0.0022059,-4.3906e-10,4.8626e-10,90,-1.2127e-11,95.8204,0.12824,-4.1687e-09,-32.0917,-8.7697e-05,-3.7816e-10,-1.5737e-11,2.2391e-14,-1.186e-08,0.035417,30,0,0,518.6273,2115.3128
1.4333,11.9691,-0.0046232,0.0027518,0.22557,0.002164,-4.3502e-10,3.0567e-10,90,-1.9641e-11,95.8114,0.12821,-4.8328e-09,-32.0917,-8.6048e-05,-3.8191e-10,1.1496e-11,2.2444e-14,-1.187e-08,0.035625,30,0,0,518.6273,2115.3128
1.4393,11.9691,-0.0046232,0.0027518,0.22557,0.002164,-4.3502e-10,3.0567e-10,90,-1.9641e-11,95.8114,0.12821,-4.8328e-09,-32.0917,-8.6048e-05,-3.8191e-10,1.1496e-11,2.2444e-14,-1.187e-08,0.035625,30,0,0,518.6273,2115.3128
1.4393,11.9691,-0.0046232,0.0027518,0.22557,0.002164,-4.3502e-10,3.0567e-10,90,-1.9641e-11,95.8114,0.12821,-4.8328e-09,-32.0917,-8.6048e-05,-3.8191e-10,1.1496e-11,2.2444e-14,-1.187e-08,0.035625,30,0,0,518.6273,2115.3128
1.4417,11.9691,-0.0045429,0.002704,0.22559,0.0021229,-4.3247e-10,1.2335e-10,90,-1.4153e-11,95.8023,0.12819,-1.882e-09,-32.0916,-8.4431e-05,-2.9306e-10,-1.5607e-11,2.2498e-14,-1.188e-08,0.035833,30,0,0,518.6273,2115.3128
1.4475,11.9691,-0.0045429,0.002704,0.22559,0.0021229,-4.3247e-10,1.2335e-10,90,-1.4153e-11,95.8023,0.12819,-1.882e-09,-32.0916,-8.4431e-05,-2.9306e-10,-1.5607e-11,2.2498e-14,-1.188e-08,0.035833,30,0,0,518.6273,2115.3128
1.4475,11.9691,-0.0045429,0.002704,0.22559,0.0021229,-4.3247e-10,1.2335e-10,90,-1.4153e-11,95.8023,0.12819,-1.882e-09,-32.0916,-8.4431e-05,-2.9306e-10,-1.5607e-11,2.2498e-14,-1.188e-08,0.035833,30,0,0,518.6273,2115.3128
1.45,11.9691,-0.0044639,0.0026569,0.22561,0.0020826,-4.3144e-10,-1.6606e-11,90,-2.1604e-11,95.7932,0.12816,-2.6348e-09,-32.0915,-8.2835e-05,-2.7751e-10,1.4481e-11,2.2551e-14,-1.189e-08,0.036042,30,0,0,518.6273,2115.3128
1.4558,11.9691,-0.0044639,0.0026569,0.22561,0.0020826,-4.3144e-10,-1.6606e-11,90,-2.1604e-11,95.7932,0.12816,-2.6348e-09,-32.0915,-8.2835e-05,-2.7751e-10,1.4481e-11,2.2551e-14,-1.189e-08,0.036042,30,0,0,518.6273,2115.3128
1.4558,11.9691,-0.0044639,0.0026569,0.22561,0.0020826,-4.3144e-10,-1.6606e-11,90,-2.1604e-11,95.7932,0.12816,-2.6348e-09,-32.0915,-8.2835e-05,-2.7751e-10,1.4481e-11,2.2551e-14,-1.189e-08,0.036042,30,0,0,518.6273,2115.3128
1.4583,11.969,-0.0043863,0.0026107,0.22562,0.0020431,-4.3158e-10,-1.4908e-10,90,-1.469e-11,95.7841,0.12814,1.466e-10,-32.0915,-8.1274e-05,-2.2045e-10,-1.7159e-11,2.2605e-14,-1.19e-08,0.03625,30,0,0,518.6273,2115.3128
1.464,11.969,-0.0043863,0.0026107,0.22562,0.0020431,-4.3158e-10,-1.4908e-10,90,-1.469e-11,95.7841,0.12814,1.466e-10,-32.0915,-8.1274e-05,-2.2045e-10,-1.7159e-11,2.2605e-14,-1.19e-08,0.03625,30,0,0,518.6273,2115.3128
1.464,11.969,-0.0043863,0.0026107,0.22562,0.0020431,-4.3158e-10,-1.4908e-10,90,-1.469e-11,95.7841,0.12814,1.466e-10,-32.0915,-8.1274e-05,-2.2045e-10,-1.7159e-11,2.2605e-14,-1.19e-08,0.03625,30,0,0,518.6273,2115.3128
1.4667,11.969,-0.0043101,0.0025652,0.22564,0.0020043,-4.3283e-10,-2.5437e-10,90,-2.2882e-11,95.7751,0.12811,-1.1183e-09,-32.0914,-7.9741e-05,-2.0324e-10,1.5675e-11,2.2657e-14,-1.191e-08,0.036458,30,0,0,518.6273,2115.3128
1.4722,11.969,-0.0043101,0.0025652,0.22564,0.0020043,-4.3283e-10,-2.5437e-10,90,-2.2882e-11,95.7751,0.12811,-1.1183e-09,-32.0914,-7.9741e-05,-2.0324e-10,1.5675e-11,2.2657e-14,-1.191e-08,0.036458,30,0,0,518.6273,2115.3128
1.4722,11.969,-0.0043101,0.0025652,0.22564,0.0020043,-4.3283e-10,-2.5437e-10,90,-2.2882e-11,95.7751,0.12811,-1.1183e-09,-32.0914,-7.9741e-05,-2.0324e-10,1.5675e-11,2.2657e-14,-1.191e-08,0.036458,30,0,0,518.6273,2115.3128
1.475,11.969,-0.0042352,0.0025206,0.22566,0.0019662,-4.3495e-10,-3.5138e-10,90,-1.5397e-11,95.766,0.12809,1.5902e-09,-32.0913,-7.8236e-05,-1.6266e-10,-1.6844e-11,2.2709e-14,-1.1919e-08,0.036667,30,0,0,518.6273,2115.3128
1.4804,11.969,-0.0042352,0.0025206,0.22566,0.0019662,-4.3495e-10,-3.5138e-10,90,-1.5397e-11,95.766,0.12809,1.5902e-09,-32.0913,-7.8236e-05,-1.6266e-10,-1.6844e-11,2.2709e-14,-1.1919e-08,0.036667,30,0,0,518.6273,2115.3128
1.4804,11.969,-0.0042352,0.0025206,0.22566,0.0019662,-4.3495e-10,-3.5138e-10,90,-1.5397e-11,95.766,0.12809,1.5902e-09,-32.0913,-7.8236e-05,-1.6266e-10,-1.6844e-11,2.2709e-14,-1.1919e-08,0.036667,30,0,0,518.6273,2115.3128
1.4833,11.9689,-0.0041616,0.0024768,0.22567,0.0019288,-4.3787e-10,-4.2907e-10,90,-2.3439e-11,95.757,0.12807,8.5462e-11,-32.0913,-7.6758e-05,-1.4875e-10,1.5987e-11,2.2761e-14,-1.1928e-08,0.036875,30,0,0,518.6273,2115.3128
1.4887,11.9689,-0.0041616,0.0024768,0.22567,0.0019288,-4.3787e-10,-4.2907e-10,90,-2.3439e-11,95.757,0.12807,8.5462e-11,-32.0913,-7.6758e-05,-1.4875e-10,1.5987e-11,2.2761e-14,-1.1928e-08,0.036875,30,0,0,518.6273,2115.3128
1.4887,11.9689,-0.0041616,0.0024768,0.22567,0.0019288,-4.3787e-10,-4.2907e-10,90,-2.3439e-11,95.757,0.12807,8.5462e-11,-32.0913,-7.6758e-05,-1.4875e-10,1.5987e-11,2.2761e-14,-1.1928e-08,0.036875,30,0,0,518.6273,2115.3128
