time,h_asl,h_dot,vc,pitch,pitch_rate,roll,roll_rate,heading,heading_rate,alpha_deg,a_pilot_x_ft_sec2,a_pilot_y_ft_sec2,a_pilot_z_ft_sec2,pitch_accel_rad_sec2,roll_accel_rad_sec2,yaw_accel_rad_sec2,lat_deg,long_deg,flaps_pos_norm,engine_percent,pilot_elevator_cmd,throttle_0_cmd,temp_rankine,pressure_psf
0,0,0,0,0,0,0,0,0,0,0,0,0,0,0,0,0,0,0,0,0,-1,1,0,0
1.1961e-08,0,0,0,0,0,0,0,0,0,0,0,0,0,0,0,0,0,0,0,0,-1,1,0,0
7.1768e-08,0,0,0,0,0,0,0,0,0,0,0,0,0,0,0,0,0,0,0,0,-1,1,0,0
3.708e-07,0,0,0,0,0,0,0,0,0,0,0,0,0,0,0,0,0,0,0,0,-1,1,0,0
1.866e-06,0,0,0,0,0,0,0,0,0,0,0,0,0,0,0,0,0,0,0,0,-1,1,0,0
9.3418e-06,0,0,0,0,0,0,0,0,0,0,0,0,0,0,0,0,0,0,0,0,-1,1,0,0
4.6721e-05,0,0,0,0,0,0,0,0,0,0,0,0,0,0,0,0,0,0,0,0,-1,1,0,0
0.00023362,0,0,0,0,0,0,0,0,0,0,0,0,0,0,0,0,0,0,0,0,-1,1,0,0
0.0011681,0,0,0,0,0,0,0,0,0,0,0,0,0,0,0,0,0,0,0,0,-1,1,0,0
0.0058405,0,0,0,0,0,0,0,0,0,0,0,0,0,0,0,0,0,0,0,0,-1,1,0,0
0.0083333,10000,0,240,-1.4125e-30,0,1.2722e-14,0,90,0,0,-2.6111,1.6646e-23,-14.1455,0.15719,1.1049e-24,0,0,0,0,0,-2.4999e-07,0,483.0255,1455.6084
0.016667,10000,-0.17648,239.9903,1.0674e-05,0.075052,1.2722e-14,3.6321e-24,90,1.6665e-17,0.021617,-3.6362,-1.7174e-22,-20.6267,0.853,1.3898,4.095e-19,0,1.0674e-05,0,100,0.039758,0,483.0255,1455.6084
0.022089,10000,-0.17648,239.9903,1.0674e-05,0.075052,1.2722e-14,3.6321e-24,90,1.6665e-17,0.021617,-3.6362,-1.7174e-22,-20.6267,0.853,1.3898,4.095e-19,0,1.0674e-05,0,100,0.039734,0,483.0255,1455.6084
0.022089,10000,-0.17648,239.9903,1.0674e-05,0.075052,1.2722e-14,3.6321e-24,90,1.6665e-17,0.021617,-3.6362,-1.7174e-22,-20.6267,0.853,1.3898,4.095e-19,0,1.0674e-05,0,100,0.039734,0,483.0255,1455.6084
0.022089,10000,-0.17648,239.9903,1.0674e-05,0.075052,1.2722e-14,3.6321e-24,90,1.6665e-17,0.021617,-3.6362,-1.7174e-22,-20.6267,0.853,1.3898,4.095e-19,0,1.0674e-05,0,100,0.039734,0,483.0255,1455.6084
0.025,9999.9972,-0.41493,240.0279,0.00064678,0.48233,1.6237e-14,0.66356,90,1.3688e-16,0.051437,-2.7051,12.6185,-62.6407,0.14954,-1.4173,-4.5722e-05,-8.7354e-25,2.1347e-05,0,99.6433,0.39938,0,483.0255,1455.6085
0.027911,9999.9972,-0.41493,240.0279,0.00064678,0.48233,1.6237e-14,0.66356,90,1.3688e-16,0.051437,-2.7051,12.6185,-62.6407,0.14954,-1.4173,-4.5722e-05,-8.7354e-25,2.1347e-05,0,99.6433,0.39935,0,483.0255,1455.6085
0.033333,9999.9925,-0.56779,240.0587,0.0046768,0.55372,0.0055297,-0.013125,90,3.0804e-05,0.07417,5.0408,-12.8646,-16.8416,0.13027,-1.3899,1.6518e-06,-1.4072e-24,3.2023e-05,0,99.2865,0.44083,0,483.0255,1455.6088
0.040021,9999.9925,-0.56779,240.0587,0.0046768,0.55372,0.0055297,-0.013125,90,3.0804e-05,0.07417,5.0408,-12.8646,-16.8416,0.13027,-1.3899,1.6518e-06,-1.4072e-24,3.2023e-05,0,99.2865,0.44073,0,483.0255,1455.6088
0.040021,9999.9925,-0.56779,240.0587,0.0046768,0.55372,0.0055297,-0.013125,90,3.0804e-05,0.07417,5.0408,-12.8646,-16.8416,0.13027,-1.3899,1.6518e-06,-1.4072e-24,3.2023e-05,0,99.2865,0.44073,0,483.0255,1455.6088
0.041667,9999.9874,-0.73908,240.0846,0.0093018,0.61593,0.0054203,-0.67677,90,3.6435e-05,0.09975,4.9195,-12.6212,-15.9607,-0.05125,-1.3631,6.1057e-05,-3.0401e-24,4.27e-05,0,98.9298,0.46948,0,483.0255,1455.6091
0.043312,9999.9874,-0.73908,240.0846,0.0093018,0.61593,0.0054203,-0.67677,90,3.6435e-05,0.09975,4.9195,-12.6212,-15.9607,-0.05125,-1.3631,6.1057e-05,-3.0401e-24,4.27e-05,0,98.9298,0.46945,0,483.0255,1455.6091
0.044566,9999.9874,-0.73908,240.0846,0.0093018,0.61593,0.0054203,-0.67677,90,3.6435e-05,0.09975,4.9195,-12.6212,-15.9607,-0.05125,-1.3631,6.1057e-05,-3.0401e-24,4.27e-05,0,98.9298,0.46942,0,483.0255,1455.6091
0.044566,9999.9874,-0.73908,240.0846,0.0093018,0.61593,0.0054203,-0.67677,90,3.6435e-05,0.09975,4.9195,-12.6212,-15.9607,-0.05125,-1.3631,6.1057e-05,-3.0401e-24,4.27e-05,0,98.9298,0.46942,0,483.0255,1455.6091
0.047856,9999.9874,-0.73908,240.0846,0.0093018,0.61593,0.0054203,-0.67677,90,3.6435e-05,0.09975,4.9195,-12.6212,-15.9607,-0.05125,-1.3631,6.1057e-05,-3.0401e-24,4.27e-05,0,98.9298,0.46936,0,483.0255,1455.6091
0.05,9999.9805,-0.89299,240.1074,0.014445,0.59146,-0.00021946,-1.3276,90,5.8772e-06,0.12372,5.9808,-12.3799,-6.1522,-0.071453,-1.3368,0.00023757,-5.9146e-13,5.3378e-05,0,98.573,0.41496,0,483.0256,1455.6095
0.050813,9999.9805,-0.89299,240.1074,0.014445,0.59146,-0.00021946,-1.3276,90,5.8772e-06,0.12372,5.9808,-12.3799,-6.1522,-0.071453,-1.3368,0.00023757,-5.9146e-13,5.3378e-05,0,98.573,0.41494,0,483.0256,1455.6095
0.050813,9999.9805,-0.89299,240.1074,0.014445,0.59146,-0.00021946,-1.3276,90,5.8772e-06,0.12372,5.9808,-12.3799,-6.1522,-0.071453,-1.3368,0.00023757,-5.9146e-13,5.3378e-05,0,98.573,0.41494,0,483.0256,1455.6095
0.053257,9999.9805,-0.89299,240.1074,0.014445,0.59146,-0.00021946,-1.3276,90,5.8772e-06,0.12372,5.9808,-12.3799,-6.1522,-0.071453,-1.3368,0.00023757,-5.9146e-13,5.3378e-05,0,98.573,0.41489,0,483.0256,1455.6095
0.053257,9999.9805,-0.89299,240.1074,0.014445,0.59146,-0.00021946,-1.3276,90,5.8772e-06,0.12372,5.9808,-12.3799,-6.1522,-0.071453,-1.3368,0.00023757,-5.9146e-13,5.3378e-05,0,98.573,0.41489,0,483.0256,1455.6095
0.055702,9999.9805,-0.89299,240.1074,0.014445,0.59146,-0.00021946,-1.3276,90,5.8772e-06,0.12372,5.9808,-12.3799,-6.1522,-0.071453,-1.3368,0.00023757,-5.9146e-13,5.3378e-05,0,98.573,0.41483,0,483.0256,1455.6095
0.058333,9999.9725,-1.0497,240.1299,0.019385,0.55734,-0.011283,-1.9659,90,1.3436e-05,0.14782,5.9117,-12.1341,-5.2179,-0.085647,-1.3109,0.00027589,-1.2281e-12,6.4057e-05,0,98.2163,0.35015,0,483.0256,1455.6099
0.063409,9999.9725,-1.0497,240.1299,0.019385,0.55734,-0.011283,-1.9659,90,1.3436e-05,0.14782,5.9117,-12.1341,-5.2179,-0.085647,-1.3109,0.00027589,-1.2281e-12,6.4057e-05,0,98.2163,0.35001,0,483.0256,1455.6099
0.066666,9999.9631,-1.2047,240.1515,0.02404,0.51645,-0.027665,-2.5918,90,7.9427e-06,0.17144,5.8247,-11.8995,-4.6083,-0.058044,-0.17891,8.2725e-05,-1.4293e-12,7.4736e-05,0,97.8595,0.27877,0,483.0256,1455.6104
0.075,9999.9524,-1.3619,240.1728,0.028354,0.48873,-0.049263,-2.6772,90,-0.00012026,0.19496,5.4521,-1.6374,-9.0674,-0.025603,0.76457,-0.00038934,-5e-13,8.5417e-05,0,97.5028,0.22002,0,483.0257,1455.611
0.083333,9999.9404,-1.5204,240.1938,0.032438,0.47651,-0.071573,-2.3122,90,-0.00047794,0.21842,5.0539,6.8978,-13.3244,0.0098979,1.3604,-0.0011348,2.4609e-12,9.6099e-05,0,97.1461,0.1764,0,483.0257,1455.6117
0.091666,9999.9271,-1.6802,240.2144,0.036419,0.48123,-0.090841,-1.6626,90,-0.0011847,0.24194,4.6369,12.2622,-16.8803,0.03881,1.4605,-0.002132,8.5474e-12,0.00010678,0,96.7893,0.14935,0,483.0258,1455.6125
0.1,9999.9124,-1.8409,240.2345,0.04044,0.49976,-0.1047,-0.96529,90,-0.0023509,0.26559,4.2674,13.113,-18.8308,0.059955,1.3588,-0.0030457,1.8489e-11,0.00011746,0,96.4326,0.13592,0,483.0258,1455.6133
0.10833,9999.8964,-2.0017,240.2542,0.044615,0.52838,-0.11274,-0.31652,90,-0.0039304,0.28941,3.953,12.1382,-19.8461,0.072657,1.0325,-0.0036126,3.2829e-11,0.00012815,0,96.0758,0.1325,0,483.0259,1455.6142
0.11667,9999.879,-2.1622,240.2732,0.049029,0.56307,-0.11538,0.17643,89.9999,-0.0057491,0.31343,3.6989,9.1462,-19.8332,0.078467,0.68722,-0.0036867,5.1852e-11,0.00013883,0,95.7191,0.13521,0,483.0259,1455.6152
0.125,9999.8603,-2.3219,240.2916,0.053732,0.60053,-0.11391,0.50455,89.9999,-0.0075696,0.33765,3.4948,6.0127,-19.3937,0.079225,0.37536,-0.0032904,7.5679e-11,0.00014952,0,95.3624,0.14083,0,483.026,1455.6162
0.12765,9999.8603,-2.3219,240.2916,0.053732,0.60053,-0.11391,0.50455,89.9999,-0.0075696,0.33765,3.4948,6.0127,-19.3937,0.079225,0.37536,-0.0032904,7.5679e-11,0.00014952,0,95.3624,0.14068,0,483.026,1455.6162
0.12765,9999.8603,-2.3219,240.2916,0.053732,0.60053,-0.11391,0.50455,89.9999,-0.0075696,0.33765,3.4948,6.0127,-19.3937,0.079225,0.37536,-0.0032904,7.5679e-11,0.00014952,0,95.3624,0.14068,0,483.026,1455.6162
0.13333,9999.8403,-2.4807,240.3093,0.058747,0.63836,-0.1097,0.68377,89.9998,-0.0091696,0.36206,3.3281,3.2101,-18.7606,0.076918,0.14864,-0.0025083,1.0425e-10,0.00016021,0,95.0057,0.14702,0,483.0261,1455.6174
0.13901,9999.8403,-2.4807,240.3093,0.058747,0.63836,-0.1097,0.68377,89.9998,-0.0091696,0.36206,3.3281,3.2101,-18.7606,0.076918,0.14864,-0.0025083,1.0425e-10,0.00016021,0,95.0057,0.14666,0,483.0261,1455.6174
0.14167,9999.819,-2.6383,240.3263,0.064078,0.67508,-0.10401,0.75474,89.9997,-0.010371,0.38664,3.1851,1.2029,-18.173,0.073168,0.0028014,-0.0015121,1.3742e-10,0.00017089,0,94.6491,0.15233,0,483.0261,1455.6186
0.15,9999.7963,-2.7948,240.3426,0.069714,0.71002,-0.097716,0.75608,89.9997,-0.01108,0.41138,3.0545,-0.05786,-17.7095,0.069163,-0.076847,-0.00046578,1.75e-10,0.00018158,0,94.2926,0.1561,0,483.0262,1455.6198
0.15833,9999.7724,-2.9501,240.3582,0.075641,0.74304,-0.091415,0.71938,89.9996,-0.011278,0.43627,2.9278,-0.71541,-17.3985,0.065621,-0.11522,0.00049325,2.1676e-10,0.00019227,0,93.9363,0.15818,0,483.0263,1455.6212
0.16667,9999.7472,-3.1043,240.3731,0.081844,0.77437,-0.08542,0.66437,89.9995,-0.011012,0.4613,2.8001,-1.0042,-17.217,0.062878,-0.13199,0.0012801,2.6248e-10,0.00020296,0,93.5802,0.1588,0,483.0264,1455.6226
0.175,9999.7207,-3.2574,240.3874,0.088308,0.8044,-0.079884,0.60135,89.9994,-0.010369,0.48645,2.6687,-1.1079,-17.1342,0.060993,-0.14052,0.0018557,3.1195e-10,0.00021365,0,93.2243,0.15831,0,483.0265,1455.6241
0.18333,9999.6929,-3.4094,240.401,0.095022,0.83352,-0.074873,0.53426,89.9993,-0.0094509,0.51173,2.5334,-1.1502,-17.1198,0.059854,-0.14648,0.0022184,3.6498e-10,0.00022434,0,92.8687,0.15712,0,483.0266,1455.6257
0.19167,9999.6639,-3.5605,240.4141,0.10198,0.8621,-0.070421,0.46432,89.9992,-0.0083627,0.53713,2.3948,-1.1826,-17.1534,0.059273,-0.15066,0.0023879,4.2137e-10,0.00023503,0,92.5135,0.15557,0,483.0267,1455.6273
0.2,9999.6336,-3.7107,240.4265,0.10917,0.8904,-0.066551,0.39239,89.9991,-0.0071978,0.56266,2.2545,-1.2111,-17.2226,0.059045,-0.15136,0.0023941,4.8097e-10,0.00024572,0,92.1588,0.15392,0,483.0268,1455.629
0.20833,9999.602,-3.8599,240.4383,0.1166,0.9186,-0.063281,0.32012,89.9991,-0.0060355,0.5883,2.1138,-1.2182,-17.3205,0.058995,-0.14661,0.002268,5.4364e-10,0.00025642,0,91.8047,0.15234,0,483.0269,1455.6308
0.21667,9999.5692,-4.0082,240.4496,0.12427,0.94677,-0.060614,0.25012,89.999,-0.0049401,0.61407,1.974,-1.1841,-17.4422,0.058991,-0.13536,0.0020389,6.0925e-10,0.00026711,0,91.4511,0.15092,0,483.027,1455.6327
0.225,9999.5352,-4.1555,240.4603,0.13217,0.97493,-0.05853,0.18549,89.999,-0.0039612,0.63995,1.8361,-1.0974,-17.5831,0.05895,-0.11788,0.0017333,6.7772e-10,0.0002778,0,91.0983,0.14967,0,483.0271,1455.6346
0.23333,9999.5,-4.3019,240.4704,0.14031,1.0031,-0.056984,0.12921,89.999,-0.0031355,0.66595,1.7008,-0.95894,-17.738,0.058829,-0.095504,0.0013765,7.4897e-10,0.0002885,0,90.7463,0.14859,0,483.0273,1455.6366
0.24167,9999.4635,-4.4473,240.48,0.14867,1.0312,-0.055907,0.083613,89.9989,-0.002487,0.69207,1.5685,-0.779,-17.9012,0.058619,-0.070142,0.00099282,8.2295e-10,0.00029919,0,90.3952,0.14763,0,483.0274,1455.6386
0.24696,9999.4635,-4.4473,240.48,0.14867,1.0312,-0.055907,0.083613,89.9989,-0.002487,0.69207,1.5685,-0.779,-17.9012,0.058619,-0.070142,0.00099282,8.2295e-10,0.00029919,0,90.3952,0.14703,0,483.0274,1455.6386
0.24696,9999.4635,-4.4473,240.48,0.14867,1.0312,-0.055907,0.083613,89.9989,-0.002487,0.69207,1.5685,-0.779,-17.9012,0.058619,-0.070142,0.00099282,8.2295e-10,0.00029919,0,90.3952,0.14703,0,483.0274,1455.6386
0.25,9999.4259,-4.5917,240.489,0.15728,1.0592,-0.05521,0.050124,89.9989,-0.0020275,0.7183,1.4392,-0.57345,-18.0674,0.058326,-0.04384,0.00060627,8.9963e-10,0.00030988,0,90.0451,0.14675,0,483.0275,1455.6408
0.25304,9999.4259,-4.5917,240.489,0.15728,1.0592,-0.05521,0.050124,89.9989,-0.0020275,0.7183,1.4392,-0.57345,-18.0674,0.058326,-0.04384,0.00060627,8.9963e-10,0.00030988,0,90.0451,0.1464,0,483.0275,1455.6408
0.25833,9999.387,-4.7352,240.4975,0.16612,1.087,-0.054793,0.029192,89.9989,-0.001757,0.74464,1.3131,-0.35932,-18.2319,0.057971,-0.018446,0.00023974,9.79e-10,0.00032058,0,89.6962,0.14592,0,483.0277,1455.6429
0.26667,9999.3469,-4.8777,240.5055,0.17518,1.1147,-0.054549,0.020385,89.9989,-0.0016643,0.7711,1.19,-0.15193,-18.3912,0.057573,0.0045722,-8.6223e-05,1.0611e-09,0.00033127,0,89.3485,0.14512,0,483.0278,1455.6452
0.275,9999.3057,-5.0192,240.513,0.18448,1.1422,-0.054379,0.022568,89.9989,-0.0017283,0.79767,1.0699,0.036662,-18.5426,0.057152,0.024076,-0.0003544,1.1458e-09,0.00034197,0,89.0021,0.14431,0,483.028,1455.6475
0.28333,9999.2633,-5.1597,240.5199,0.19401,1.1695,-0.054191,0.034062,89.9989,-0.0019196,0.82434,0.95276,0.19719,-18.6845,0.056722,0.03935,-0.00055263,1.2333e-09,0.00035267,0,88.6572,0.14349,0,483.0281,1455.6499
0.29167,9999.2197,-5.2991,240.5264,0.20377,1.1965,-0.053907,0.052849,89.9988,-0.0022032,0.85112,0.83849,0.32388,-18.8157,0.056293,0.049971,-0.00067388,1.3235e-09,0.00036336,0,88.314,0.14266,0,483.0283,1455.6524
0.3,9999.175,-5.4376,240.5324,0.21375,1.2234,-0.053467,0.076707,89.9988,-0.0025409,0.87801,0.72708,0.41329,-18.9357,0.05587,0.055781,-0.00071655,1.4163e-09,0.00037406,0,87.9724,0.14181,0,483.0284,1455.6549
0.30833,9999.1291,-5.5751,240.5379,0.22396,1.2501,-0.052828,0.10334,89.9988,-0.0028941,0.90499,0.6185,0.46403,-19.0445,0.055455,0.056867,-0.0006843,1.5119e-09,0.00038475,0,87.6326,0.14096,0,483.0286,1455.6575
0.31667,9999.0821,-5.7115,240.543,0.23439,1.2766,-0.051967,0.13049,89.9988,-0.0032262,0.93208,0.51276,0.47663,-19.1423,0.055047,0.053547,-0.00058533,1.6102e-09,0.00039545,0,87.2947,0.1401,0,483.0288,1455.6602
0.325,9999.0339,-5.847,240.5476,0.24503,1.3029,-0.050879,0.15605,89.9987,-0.0035049,0.95926,0.40984,0.45339,-19.2299,0.054644,0.04635,-0.00043161,1.7112e-09,0.00040615,0,86.9589,0.13924,0,483.0289,1455.6629
0.33333,9998.9846,-5.9814,240.5518,0.2559,1.3289,-0.049579,0.17818,89.9987,-0.0037042,0.98654,0.30973,0.39832,-19.3085,0.054244,0.035993,-0.00023786,1.8148e-09,0.00041684,0,86.6252,0.13838,0,483.0291,1455.6657
0.34167,9998.9342,-6.1148,240.5555,0.26699,1.3548,-0.048094,0.19537,89.9987,-0.0038053,1.0139,0.21242,0.31696,-19.3798,0.053846,0.023339,-2.0595e-05,1.921e-09,0.00042754,0,86.2938,0.13753,0,483.0293,1455.6685
0.35,9998.8827,-6.2472,240.5589,0.27829,1.3806,-0.046466,0.20651,89.9987,-0.0037977,1.0414,0.11787,0.21608,-19.4458,0.053447,0.0093485,0.000203,2.0298e-09,0.00043824,0,85.9648,0.13669,0,483.0295,1455.6714
0.35833,9998.8301,-6.3786,240.5618,0.2898,1.4061,-0.044745,0.21097,89.9986,-0.0036795,1.0689,0.026043,0.10329,-19.5088,0.053047,-0.0049841,0.00041612,2.141e-09,0.00044893,0,85.6382,0.13585,0,483.0297,1455.6744
0.36667,9998.7764,-6.5089,240.5644,0.30153,1.4314,-0.042987,0.20859,89.9986,-0.0034569,1.0966,-0.0631,-0.013453,-19.5713,0.052645,-0.018687,0.00060333,2.2546e-09,0.00045963,0,85.3141,0.13501,0,483.0299,1455.6774
0.375,9998.7216,-6.6382,240.5665,0.31347,1.4565,-0.041249,0.19967,89.9986,-0.0031438,1.1243,-0.14961,-0.12629,-19.6356,0.052241,-0.03087,0.00075154,2.3706e-09,0.00047033,0,84.9927,0.13418,0,483.03,1455.6805
0.38333,9998.6658,-6.7665,240.5683,0.32562,1.4815,-0.039585,0.18493,89.9985,-0.0027601,1.1521,-0.23353,-0.22793,-19.7039,0.051835,-0.040772,0.00085071,2.4888e-09,0.00048103,0,84.6741,0.13336,0,483.0302,1455.6836
0.39167,9998.6088,-6.8938,240.5697,0.33798,1.5062,-0.038044,0.16547,89.9985,-0.0023308,1.18,-0.31492,-0.31211,-19.7782,0.051427,-0.047808,0.00089449,2.6092e-09,0.00049172,0,84.3582,0.13254,0,483.0304,1455.6869
0.4,9998.5509,-7.02,240.5708,0.35054,1.5308,-0.036665,0.14264,89.9985,-0.0018833,1.208,-0.39381,-0.37383,-19.8599,0.051017,-0.05159,0.00088053,2.7317e-09,0.00050242,0,84.0452,0.13173,0,483.0307,1455.6901
0.40833,9998.4918,-7.1451,240.5715,0.3633,1.5551,-0.035476,0.11801,89.9985,-0.0014464,1.236,-0.47023,-0.40972,-19.9499,0.050606,-0.051956,0.00081057,2.8563e-09,0.00051312,0,83.7351,0.13092,0,483.0309,1455.6935
0.41667,9998.4318,-7.2692,240.5719,0.37628,1.5793,-0.034493,0.09321,89.9985,-0.0010474,1.2642,-0.54421,-0.41812,-20.0487,0.050194,-0.048964,0.00069032,2.9829e-09,0.00052382,0,83.4281,0.13012,0,483.0311,1455.6968
0.425,9998.3707,-7.3923,240.572,0.38945,1.6033,-0.033716,0.069833,89.9985,-0.00071057,1.2924,-0.61576,-0.39917,-20.1562,0.049781,-0.042896,0.00052897,3.1115e-09,0.00053451,0,83.1241,0.12932,0,483.0313,1455.7003
0.43333,9998.3086,-7.5143,240.5718,0.40282,1.627,-0.033134,0.049354,89.9985,-0.00045554,1.3206,-0.6849,-0.35479,-20.2716,0.049367,-0.034229,0.0003386,3.242e-09,0.00054521,0,82.8232,0.12852,0,483.0315,1455.7038
0.44166,9998.2455,-7.6353,240.5712,0.41639,1.6506,-0.032723,0.033012,89.9985,-0.00029571,1.349,-0.75164,-0.28852,-20.3937,0.048952,-0.023608,0.00013333,3.3745e-09,0.00055591,0,82.5254,0.12773,0,483.0317,1455.7074
0.4443,9998.2455,-7.6353,240.5712,0.41639,1.6506,-0.032723,0.033012,89.9985,-0.00029571,1.349,-0.75164,-0.28852,-20.3937,0.048952,-0.023608,0.00013333,3.3745e-09,0.00055591,0,82.5254,0.12721,0,483.0317,1455.7074
0.4443,9998.2455,-7.6353,240.5712,0.41639,1.6506,-0.032723,0.033012,89.9985,-0.00029571,1.349,-0.75164,-0.28852,-20.3937,0.048952,-0.023608,0.00013333,3.3745e-09,0.00055591,0,82.5254,0.12721,0,483.0317,1455.7074
0.45,9998.1813,-7.7552,240.5704,0.43015,1.674,-0.032448,0.02174,89.9985,-0.0002374,1.3774,-0.81598,-0.20529,-20.521,0.048536,-0.011802,-7.1676e-05,3.5089e-09,0.0005666,0,82.2309,0.12694,0,483.032,1455.711
0.4557,9998.1813,-7.7552,240.5704,0.43015,1.674,-0.032448,0.02174,89.9985,-0.0002374,1.3774,-0.81598,-0.20529,-20.521,0.048536,-0.011802,-7.1676e-05,3.5089e-09,0.0005666,0,82.2309,0.1258,0,483.032,1455.711
0.45833,9998.1162,-7.8741,240.5693,0.44411,1.6972,-0.032266,0.016104,89.9984,-0.00027941,1.4059,-0.87793,-0.11112,-20.6514,0.04812,0.00034325,-0.0002612,3.6451e-09,0.0005773,0,81.9395,0.12616,0,483.0322,1455.7147
0.46666,9998.0501,-7.9919,240.5679,0.45827,1.7201,-0.032132,0.016267,89.9984,-0.00041306,1.4345,-0.93747,-0.012713,-20.783,0.047702,0.01197,-0.00042101,3.7833e-09,0.000588,0,81.6514,0.12538,0,483.0324,1455.7184
0.475,9997.983,-8.1086,240.5663,0.47261,1.7429,-0.031997,0.02198,89.9984,-0.00062275,1.4631,-0.99463,0.083027,-20.9134,0.047284,0.022238,-0.00053915,3.9234e-09,0.00059869,0,81.3665,0.12461,0,483.0327,1455.7222
0.48333,9997.915,-8.2243,240.5644,0.48715,1.7655,-0.031813,0.032596,89.9984,-0.00088718,1.4917,-1.0494,0.16921,-21.0407,0.046865,0.030419,-0.00060646,4.0654e-09,0.00060939,0,81.0849,0.12384,0,483.0329,1455.726
0.49166,9997.8459,-8.3389,240.5622,0.50187,1.7879,-0.031542,0.047117,89.9984,-0.0011807,1.5205,-1.1019,0.23978,-21.1629,0.046445,0.035918,-0.00061733,4.2093e-09,0.00062009,0,80.8066,0.12308,0,483.0332,1455.7299
0.5,9997.776,-8.4525,240.5598,0.51678,1.81,-0.031149,0.064264,89.9984,-0.0014754,1.5493,-1.152,0.28963,-21.2786,0.046024,0.03833,-0.0005704,4.3551e-09,0.00063078,0,80.5315,0.12232,0,483.0334,1455.7339
0.50833,9997.7051,-8.5649,240.5572,0.53187,1.832,-0.030614,0.082562,89.9984,-0.0017426,1.5781,-1.1998,0.31512,-21.3868,0.045603,0.037463,-0.0004686,4.5027e-09,0.00064148,0,80.2597,0.12157,0.023629,483.0337,1455.7379
0.50914,9997.7051,-8.5649,240.5572,0.53187,1.832,-0.030614,0.082562,89.9984,-0.0017426,1.5781,-1.1998,0.31512,-21.3868,0.045603,0.037463,-0.0004686,4.5027e-09,0.00064148,0,80.2597,0.12138,1.9018e-13,483.0337,1455.7379
0.50914,9997.7051,-8.5649,240.5572,0.53187,1.832,-0.030614,0.082562,89.9984,-0.0017426,1.5781,-1.1998,0.31512,-21.3868,0.045603,0.037463,-0.0004686,4.5027e-09,0.00064148,0,80.2597,0.12138,0,483.0337,1455.7379
0.51666,9997.6332,-8.6764,240.5543,0.54715,1.8538,-0.029926,0.10045,89.9984,-0.0019559,1.607,-1.2454,0.31428,-21.487,0.04518,0.033353,-0.00031913,4.6523e-09,0.00065218,0,79.9911,0.12082,0.052588,483.0339,1455.7419
0.5184,9997.6332,-8.6764,240.5543,0.54715,1.8538,-0.029926,0.10045,89.9984,-0.0019559,1.607,-1.2454,0.31428,-21.487,0.04518,0.033353,-0.00031913,4.6523e-09,0.00065218,0,79.9911,0.12042,1.9512e-13,483.0339,1455.7419
0.5184,9997.6332,-8.6764,240.5543,0.54715,1.8538,-0.029926,0.10045,89.9984,-0.0019559,1.607,-1.2454,0.31428,-21.487,0.04518,0.033353,-0.00031913,4.6523e-09,0.00065218,0,79.9911,0.12042,0,483.0339,1455.7419
0.525,9997.5605,-8.7867,240.5513,0.56261,1.8754,-0.029089,0.11637,89.9984,-0.0020922,1.636,-1.2888,0.28692,-21.5792,0.044757,0.026273,-0.00013297,4.8037e-09,0.00066287,0,79.7258,0.12007,0.080768,483.0342,1455.746
0.52755,9997.5605,-8.7867,240.5513,0.56261,1.8754,-0.029089,0.11637,89.9984,-0.0020922,1.636,-1.2888,0.28692,-21.5792,0.044757,0.026273,-0.00013297,4.8037e-09,0.00066287,0,79.7258,0.11949,1.9329e-13,483.0342,1455.746
0.52755,9997.5605,-8.7867,240.5513,0.56261,1.8754,-0.029089,0.11637,89.9984,-0.0020922,1.636,-1.2888,0.28692,-21.5792,0.044757,0.026273,-0.00013297,4.8037e-09,0.00066287,0,79.7258,0.11949,0,483.0342,1455.746
0.532,9997.5605,-8.7867,240.5513,0.56261,1.8754,-0.029089,0.11637,89.9984,-0.0020922,1.636,-1.2888,0.28692,-21.5792,0.044757,0.026273,-0.00013297,4.8037e-09,0.00066287,0,79.7258,0.11847,0,483.0342,1455.746
0.532,9997.5605,-8.7867,240.5513,0.56261,1.8754,-0.029089,0.11637,89.9984,-0.0020922,1.636,-1.2888,0.28692,-21.5792,0.044757,0.026273,-0.00013297,4.8037e-09,0.00066287,0,79.7258,0.11847,0,483.0342,1455.746
0.53333,9997.4868,-8.896,240.548,0.57825,1.8967,-0.028119,0.12891,89.9984,-0.0021346,1.665,-1.3301,0.23479,-21.6642,0.044333,0.016714,7.5757e-05,4.9569e-09,0.00067357,0,79.4637,0.11933,0.10835,483.0344,1455.7502
0.53466,9997.4868,-8.896,240.548,0.57825,1.8967,-0.028119,0.12891,89.9984,-0.0021346,1.665,-1.3301,0.23479,-21.6642,0.044333,0.016714,7.5757e-05,4.9569e-09,0.00067357,0,79.4637,0.11902,0.060361,483.0344,1455.7502
0.53663,9997.4868,-8.896,240.548,0.57825,1.8967,-0.028119,0.12891,89.9984,-0.0021346,1.665,-1.3301,0.23479,-21.6642,0.044333,0.016714,7.5757e-05,4.9569e-09,0.00067357,0,79.4637,0.11857,1.9101e-13,483.0344,1455.7502
0.53663,9997.4868,-8.896,240.548,0.57825,1.8967,-0.028119,0.12891,89.9984,-0.0021346,1.665,-1.3301,0.23479,-21.6642,0.044333,0.016714,7.5757e-05,4.9569e-09,0.00067357,0,79.4637,0.11857,0,483.0344,1455.7502
0.5393,9997.4868,-8.896,240.548,0.57825,1.8967,-0.028119,0.12891,89.9984,-0.0021346,1.665,-1.3301,0.23479,-21.6642,0.044333,0.016714,7.5757e-05,4.9569e-09,0.00067357,0,79.4637,0.11795,0,483.0344,1455.7502
0.54166,9997.4122,-9.0042,240.5445,0.59407,1.9179,-0.027045,0.13689,89.9983,-0.002073,1.694,-1.3694,0.16142,-21.7431,0.043908,0.0053663,0.00029068,5.1119e-09,0.00068426,0,79.2049,0.1186,0.13512,483.0347,1455.7544
0.54566,9997.4122,-9.0042,240.5445,0.59407,1.9179,-0.027045,0.13689,89.9983,-0.002073,1.694,-1.3694,0.16142,-21.7431,0.043908,0.0053663,0.00029068,5.1119e-09,0.00068426,0,79.2049,0.11766,4.6074e-15,483.0347,1455.7544
0.54566,9997.4122,-9.0042,240.5445,0.59407,1.9179,-0.027045,0.13689,89.9983,-0.002073,1.694,-1.3694,0.16142,-21.7431,0.043908,0.0053663,0.00029068,5.1119e-09,0.00068426,0,79.2049,0.11766,0,483.0347,1455.7544
0.55,9997.3367,-9.1113,240.5409,0.61006,1.9389,-0.025904,0.13946,89.9983,-0.0019057,1.7231,-1.4068,0.071994,-21.8177,0.043483,-0.006933,0.00049443,5.2686e-09,0.00069496,0,78.9492,0.11787,0.16112,483.035,1455.7586
0.55433,9997.3367,-9.1113,240.5409,0.61006,1.9389,-0.025904,0.13946,89.9983,-0.0019057,1.7231,-1.4068,0.071994,-21.8177,0.043483,-0.006933,0.00049443,5.2686e-09,0.00069496,0,78.9492,0.11683,0.0082475,483.035,1455.7586
0.55463,9997.3367,-9.1113,240.5409,0.61006,1.9389,-0.025904,0.13946,89.9983,-0.0019057,1.7231,-1.4068,0.071994,-21.8177,0.043483,-0.006933,0.00049443,5.2686e-09,0.00069496,0,78.9492,0.11676,1.9423e-13,483.035,1455.7586
0.55463,9997.3367,-9.1113,240.5409,0.61006,1.9389,-0.025904,0.13946,89.9983,-0.0019057,1.7231,-1.4068,0.071994,-21.8177,0.043483,-0.006933,0.00049443,5.2686e-09,0.00069496,0,78.9492,0.11676,0,483.035,1455.7586
0.55833,9997.2604,-9.2173,240.537,0.62623,1.9596,-0.024742,0.13615,89.9983,-0.0016394,1.7523,-1.4423,-0.026986,-21.8901,0.043057,-0.019251,0.00066989,5.4269e-09,0.00070565,0,78.6967,0.11714,0.18637,483.0353,1455.763
0.56203,9997.2604,-9.2173,240.537,0.62623,1.9596,-0.024742,0.13615,89.9983,-0.0016394,1.7523,-1.4423,-0.026986,-21.8901,0.043057,-0.019251,0.00066989,5.4269e-09,0.00070565,0,78.6967,0.11625,0.044531,483.0353,1455.763
0.56354,9997.2604,-9.2173,240.537,0.62623,1.9596,-0.024742,0.13615,89.9983,-0.0016394,1.7523,-1.4423,-0.026986,-21.8901,0.043057,-0.019251,0.00066989,5.4269e-09,0.00070565,0,78.6967,0.11588,8.3378e-14,483.0353,1455.763
0.56354,9997.2604,-9.2173,240.537,0.62623,1.9596,-0.024742,0.13615,89.9983,-0.0016394,1.7523,-1.4423,-0.026986,-21.8901,0.043057,-0.019251,0.00066989,5.4269e-09,0.00070565,0,78.6967,0.11588,0,483.0353,1455.763
0.56666,9997.1831,-9.3223,240.533,0.64257,1.9802,-0.023607,0.12696,89.9983,-0.0012894,1.7815,-1.4761,-0.12813,-21.9626,0.04263,-0.030626,0.0008014,5.5869e-09,0.00071635,0,78.4473,0.11642,0.21079,483.0355,1455.7673
0.56978,9997.1831,-9.3223,240.533,0.64257,1.9802,-0.023607,0.12696,89.9983,-0.0012894,1.7815,-1.4761,-0.12813,-21.9626,0.04263,-0.030626,0.0008014,5.5869e-09,0.00071635,0,78.4473,0.11566,0.08178,483.0355,1455.7673
0.57242,9997.1831,-9.3223,240.533,0.64257,1.9802,-0.023607,0.12696,89.9983,-0.0012894,1.7815,-1.4761,-0.12813,-21.9626,0.04263,-0.030626,0.0008014,5.5869e-09,0.00071635,0,78.4473,0.11502,1.904e-13,483.0355,1455.7673
0.57242,9997.1831,-9.3223,240.533,0.64257,1.9802,-0.023607,0.12696,89.9983,-0.0012894,1.7815,-1.4761,-0.12813,-21.9626,0.04263,-0.030626,0.0008014,5.5869e-09,0.00071635,0,78.4473,0.11502,0,483.0355,1455.7673
0.575,9997.105,-9.4262,240.5288,0.65908,2.0005,-0.022549,0.11234,89.9983,-0.00087833,1.8107,-1.5082,-0.22368,-22.0375,0.042203,-0.040134,0.00087613,5.7483e-09,0.00072704,0,78.2011,0.11571,0.2344,483.0358,1455.7717
0.57758,9997.105,-9.4262,240.5288,0.65908,2.0005,-0.022549,0.11234,89.9983,-0.00087833,1.8107,-1.5082,-0.22368,-22.0375,0.042203,-0.040134,0.00087613,5.7483e-09,0.00072704,0,78.2011,0.11507,0.11987,483.0358,1455.7717
0.58125,9997.105,-9.4262,240.5288,0.65908,2.0005,-0.022549,0.11234,89.9983,-0.00087833,1.8107,-1.5082,-0.22368,-22.0375,0.042203,-0.040134,0.00087613,5.7483e-09,0.00072704,0,78.2011,0.11416,1.9001e-13,483.0358,1455.7717
0.58125,9997.105,-9.4262,240.5288,0.65908,2.0005,-0.022549,0.11234,89.9983,-0.00087833,1.8107,-1.5082,-0.22368,-22.0375,0.042203,-0.040134,0.00087613,5.7483e-09,0.00072704,0,78.2011,0.11416,0,483.0358,1455.7717
0.58333,9997.026,-9.529,240.5244,0.67576,2.0207,-0.021613,0.093185,89.9983,-0.00043504,1.8399,-1.5387,-0.30601,-22.1173,0.041775,-0.046957,0.00088514,5.9113e-09,0.00073773,0,77.9579,0.11499,0.25725,483.0361,1455.7762
0.58541,9997.026,-9.529,240.5244,0.67576,2.0207,-0.021613,0.093185,89.9983,-0.00043504,1.8399,-1.5387,-0.30601,-22.1173,0.041775,-0.046957,0.00088514,5.9113e-09,0.00073773,0,77.9579,0.11447,0.15873,483.0361,1455.7762
0.58957,9997.026,-9.529,240.5244,0.67576,2.0207,-0.021613,0.093185,89.9983,-0.00043504,1.8399,-1.5387,-0.30601,-22.1173,0.041775,-0.046957,0.00088514,5.9113e-09,0.00073773,0,77.9579,0.11344,0.013292,483.0361,1455.7762
0.59005,9997.026,-9.529,240.5244,0.67576,2.0207,-0.021613,0.093185,89.9983,-0.00043504,1.8399,-1.5387,-0.30601,-22.1173,0.041775,-0.046957,0.00088514,5.9113e-09,0.00073773,0,77.9579,0.11331,4.4964e-15,483.0361,1455.7762
0.59005,9997.026,-9.529,240.5244,0.67576,2.0207,-0.021613,0.093185,89.9983,-0.00043504,1.8399,-1.5387,-0.30601,-22.1173,0.041775,-0.046957,0.00088514,5.9113e-09,0.00073773,0,77.9579,0.11331,0,483.0361,1455.7762
0.59166,9996.9462,-9.6307,240.5199,0.69261,2.0406,-0.020836,0.07077,89.9983,7.6327e-06,1.8692,-1.5677,-0.36823,-22.2039,0.041347,-0.05045,0.00082434,6.0757e-09,0.00074843,0,77.7177,0.11429,0.27936,483.0364,1455.7807
0.59328,9996.9462,-9.6307,240.5199,0.69261,2.0406,-0.020836,0.07077,89.9983,7.6327e-06,1.8692,-1.5677,-0.36823,-22.2039,0.041347,-0.05045,0.00082434,6.0757e-09,0.00074843,0,77.7177,0.11388,0.19826,483.0364,1455.7807
0.5965,9996.9462,-9.6307,240.5199,0.69261,2.0406,-0.020836,0.07077,89.9983,7.6327e-06,1.8692,-1.5677,-0.36823,-22.2039,0.041347,-0.05045,0.00082434,6.0757e-09,0.00074843,0,77.7177,0.11307,0.070125,483.0364,1455.7807
0.59883,9996.9462,-9.6307,240.5199,0.69261,2.0406,-0.020836,0.07077,89.9983,7.6327e-06,1.8692,-1.5677,-0.36823,-22.2039,0.041347,-0.05045,0.00082434,6.0757e-09,0.00074843,0,77.7177,0.11248,9.992e-15,483.0364,1455.7807
0.59883,9996.9462,-9.6307,240.5199,0.69261,2.0406,-0.020836,0.07077,89.9983,7.6327e-06,1.8692,-1.5677,-0.36823,-22.2039,0.041347,-0.05045,0.00082434,6.0757e-09,0.00074843,0,77.7177,0.11248,0,483.0364,1455.7807
0.6,9996.8655,-9.7313,240.5152,0.70963,2.0604,-0.020247,0.046687,89.9983,0.0004152,1.8986,-1.5953,-0.40465,-22.2989,0.040918,-0.050195,0.00069504,6.2415e-09,0.00075912,0,77.4806,0.11359,0.30073,483.0367,1455.7852
0.60117,9996.8655,-9.7313,240.5152,0.70963,2.0604,-0.020247,0.046687,89.9983,0.0004152,1.8986,-1.5953,-0.40465,-22.2989,0.040918,-0.050195,0.00069504,6.2415e-09,0.00075912,0,77.4806,0.11329,0.23833,483.0367,1455.7852
0.60351,9996.8655,-9.7313,240.5152,0.70963,2.0604,-0.020247,0.046687,89.9983,0.0004152,1.8986,-1.5953,-0.40465,-22.2989,0.040918,-0.050195,0.00069504,6.2415e-09,0.00075912,0,77.4806,0.11269,0.1332,483.0367,1455.7852
0.60757,9996.8655,-9.7313,240.5152,0.70963,2.0604,-0.020247,0.046687,89.9983,0.0004152,1.8986,-1.5953,-0.40465,-22.2989,0.040918,-0.050195,0.00069504,6.2415e-09,0.00075912,0,77.4806,0.11165,6.6613e-16,483.0367,1455.7852
0.60757,9996.8655,-9.7313,240.5152,0.70963,2.0604,-0.020247,0.046687,89.9983,0.0004152,1.8986,-1.5953,-0.40465,-22.2989,0.040918,-0.050195,0.00069504,6.2415e-09,0.00075912,0,77.4806,0.11165,0,483.0367,1455.7852
0.60833,9996.784,-9.8309,240.5104,0.72681,2.0799,-0.019858,0.022725,89.9983,0.00075424,1.928,-1.6214,-0.41136,-22.4034,0.040488,-0.046043,0.00050415,6.4086e-09,0.00076982,0,77.2464,0.11289,0.32141,483.0369,1455.7898
0.60909,9996.784,-9.8309,240.5104,0.72681,2.0799,-0.019858,0.022725,89.9983,0.00075424,1.928,-1.6214,-0.41136,-22.4034,0.040488,-0.046043,0.00050415,6.4086e-09,0.00076982,0,77.2464,0.11269,0.27888,483.0369,1455.7898
0.6106,9996.784,-9.8309,240.5104,0.72681,2.0799,-0.019858,0.022725,89.9983,0.00075424,1.928,-1.6214,-0.41136,-22.4034,0.040488,-0.046043,0.00050415,6.4086e-09,0.00076982,0,77.2464,0.1123,0.20273,483.0369,1455.7898
0.61363,9996.784,-9.8309,240.5104,0.72681,2.0799,-0.019858,0.022725,89.9983,0.00075424,1.928,-1.6214,-0.41136,-22.4034,0.040488,-0.046043,0.00050415,6.4086e-09,0.00076982,0,77.2464,0.11152,0.080939,483.0369,1455.7898
0.6163,9996.784,-9.8309,240.5104,0.72681,2.0799,-0.019858,0.022725,89.9983,0.00075424,1.928,-1.6214,-0.41136,-22.4034,0.040488,-0.046043,0.00050415,6.4086e-09,0.00076982,0,77.2464,0.11083,1.7009e-13,483.0369,1455.7898
0.6163,9996.784,-9.8309,240.5104,0.72681,2.0799,-0.019858,0.022725,89.9983,0.00075424,1.928,-1.6214,-0.41136,-22.4034,0.040488,-0.046043,0.00050415,6.4086e-09,0.00076982,0,77.2464,0.11083,0,483.0369,1455.7898
0.61666,9996.7017,-9.9293,240.5054,0.74415,2.0992,-0.019668,0.00074471,89.9983,0.00099519,1.9574,-1.6461,-0.38648,-22.5178,0.040069,-0.038143,0.00026397,6.5771e-09,0.00078051,0,77.0151,0.1122,0.34141,483.0372,1455.7945
0.61703,9996.7017,-9.9293,240.5054,0.74415,2.0992,-0.019668,0.00074471,89.9983,0.00099519,1.9574,-1.6461,-0.38648,-22.5178,0.040069,-0.038143,0.00026397,6.5771e-09,0.00078051,0,77.0151,0.1121,0.31984,483.0372,1455.7945
0.61776,9996.7017,-9.9293,240.5054,0.74415,2.0992,-0.019668,0.00074471,89.9983,0.00099519,1.9574,-1.6461,-0.38648,-22.5178,0.040069,-0.038143,0.00026397,6.5771e-09,0.00078051,0,77.0151,0.11191,0.27891,483.0372,1455.7945
0.61922,9996.7017,-9.9293,240.5054,0.74415,2.0992,-0.019668,0.00074471,89.9983,0.00099519,1.9574,-1.6461,-0.38648,-22.5178,0.040069,-0.038143,0.00026397,6.5771e-09,0.00078051,0,77.0151,0.11153,0.20548,483.0372,1455.7945
0.62214,9996.7017,-9.9293,240.5054,0.74415,2.0992,-0.019668,0.00074471,89.9983,0.00099519,1.9574,-1.6461,-0.38648,-22.5178,0.040069,-0.038143,0.00026397,6.5771e-09,0.00078051,0,77.0151,0.11077,0.087117,483.0372,1455.7945
0.625,9996.6185,-10.0267,240.5006,0.76166,2.1184,-0.019662,-0.017465,89.9983,0.0011149,1.9868,-1.6212,-0.33051,-22.6422,0.03965,-0.026941,-8.4132e-06,6.747e-09,0.0007912,0,76.7829,0.11152,0.33866,483.0375,1455.7992
0.62827,9996.6185,-10.0267,240.5006,0.76166,2.1184,-0.019662,-0.017465,89.9983,0.0011149,1.9868,-1.6212,-0.33051,-22.6422,0.03965,-0.026941,-8.4132e-06,6.747e-09,0.0007912,0,76.7829,0.11065,0.17133,483.0375,1455.7992
0.62827,9996.6185,-10.0267,240.5006,0.76166,2.1184,-0.019662,-0.017465,89.9983,0.0011149,1.9868,-1.6212,-0.33051,-22.6422,0.03965,-0.026941,-8.4132e-06,6.747e-09,0.0007912,0,76.7829,0.11065,0.17133,483.0375,1455.7992
0.63332,9996.6185,-10.0267,240.5006,0.76166,2.1184,-0.019662,-0.017465,89.9983,0.0011149,1.9868,-1.6212,-0.33051,-22.6422,0.03965,-0.026941,-8.4132e-06,6.747e-09,0.0007912,0,76.7829,0.10932,1.8863e-13,483.0375,1455.7992
0.63332,9996.6185,-10.0267,240.5006,0.76166,2.1184,-0.019662,-0.017465,89.9983,0.0011149,1.9868,-1.6212,-0.33051,-22.6422,0.03965,-0.026941,-8.4132e-06,6.747e-09,0.0007912,0,76.7829,0.10932,0,483.0375,1455.7992
0.63333,9996.5345,-10.123,240.4959,0.77932,2.1373,-0.019808,-0.030329,89.9983,0.001099,2.0162,-1.5962,-0.24638,-22.7751,0.03923,-0.013169,-0.00029222,6.9181e-09,0.00080189,0,76.5497,0.11085,0.33336,483.0378,1455.8039
0.63334,9996.5345,-10.123,240.4959,0.77932,2.1373,-0.019808,-0.030329,89.9983,0.001099,2.0162,-1.5962,-0.24638,-22.7751,0.03923,-0.013169,-0.00029222,6.9181e-09,0.00080189,0,76.5497,0.11084,0.33269,483.0378,1455.8039
0.63336,9996.5345,-10.123,240.4959,0.77932,2.1373,-0.019808,-0.030329,89.9983,0.001099,2.0162,-1.5962,-0.24638,-22.7751,0.03923,-0.013169,-0.00029222,6.9181e-09,0.00080189,0,76.5497,0.11084,0.33136,483.0378,1455.8039
0.63341,9996.5345,-10.123,240.4959,0.77932,2.1373,-0.019808,-0.030329,89.9983,0.001099,2.0162,-1.5962,-0.24638,-22.7751,0.03923,-0.013169,-0.00029222,6.9181e-09,0.00080189,0,76.5497,0.11082,0.3287,483.0378,1455.8039
0.6335,9996.5345,-10.123,240.4959,0.77932,2.1373,-0.019808,-0.030329,89.9983,0.001099,2.0162,-1.5962,-0.24638,-22.7751,0.03923,-0.013169,-0.00029222,6.9181e-09,0.00080189,0,76.5497,0.1108,0.32342,483.0378,1455.8039
0.63368,9996.5345,-10.123,240.4959,0.77932,2.1373,-0.019808,-0.030329,89.9983,0.001099,2.0162,-1.5962,-0.24638,-22.7751,0.03923,-0.013169,-0.00029222,6.9181e-09,0.00080189,0,76.5497,0.11075,0.31299,483.0378,1455.8039
0.63404,9996.5345,-10.123,240.4959,0.77932,2.1373,-0.019808,-0.030329,89.9983,0.001099,2.0162,-1.5962,-0.24638,-22.7751,0.03923,-0.013169,-0.00029222,6.9181e-09,0.00080189,0,76.5497,0.11066,0.29269,483.0378,1455.8039
0.63477,9996.5345,-10.123,240.4959,0.77932,2.1373,-0.019808,-0.030329,89.9983,0.001099,2.0162,-1.5962,-0.24638,-22.7751,0.03923,-0.013169,-0.00029222,6.9181e-09,0.00080189,0,76.5497,0.11046,0.25423,483.0378,1455.8039
0.63621,9996.5345,-10.123,240.4959,0.77932,2.1373,-0.019808,-0.030329,89.9983,0.001099,2.0162,-1.5962,-0.24638,-22.7751,0.03923,-0.013169,-0.00029222,6.9181e-09,0.00080189,0,76.5497,0.11008,0.18515,483.0378,1455.8039
0.6391,9996.5345,-10.123,240.4959,0.77932,2.1373,-0.019808,-0.030329,89.9983,0.001099,2.0162,-1.5962,-0.24638,-22.7751,0.03923,-0.013169,-0.00029222,6.9181e-09,0.00080189,0,76.5497,0.10931,0.073587,483.0378,1455.8039
0.6416,9996.5345,-10.123,240.4959,0.77932,2.1373,-0.019808,-0.030329,89.9983,0.001099,2.0162,-1.5962,-0.24638,-22.7751,0.03923,-0.013169,-0.00029222,6.9181e-09,0.00080189,0,76.5497,0.10864,1.828e-13,483.0378,1455.8039
0.6416,9996.5345,-10.123,240.4959,0.77932,2.1373,-0.019808,-0.030329,89.9983,0.001099,2.0162,-1.5962,-0.24638,-22.7751,0.03923,-0.013169,-0.00029222,6.9181e-09,0.00080189,0,76.5497,0.10864,0,483.0378,1455.8039
0.64166,9996.4498,-10.2182,240.4912,0.79714,2.156,-0.02006,-0.036618,89.9983,0.0009435,2.0457,-1.571,-0.13937,-22.9146,0.038807,0.0021987,-0.00056434,7.0906e-09,0.00081259,0,76.3155,0.11019,0.32722,483.0381,1455.8087
0.64173,9996.4498,-10.2182,240.4912,0.79714,2.156,-0.02006,-0.036618,89.9983,0.0009435,2.0457,-1.571,-0.13937,-22.9146,0.038807,0.0021987,-0.00056434,7.0906e-09,0.00081259,0,76.3155,0.11017,0.32366,483.0381,1455.8087
0.64185,9996.4498,-10.2182,240.4912,0.79714,2.156,-0.02006,-0.036618,89.9983,0.0009435,2.0457,-1.571,-0.13937,-22.9146,0.038807,0.0021987,-0.00056434,7.0906e-09,0.00081259,0,76.3155,0.11014,0.31658,483.0381,1455.8087
0.64209,9996.4498,-10.2182,240.4912,0.79714,2.156,-0.02006,-0.036618,89.9983,0.0009435,2.0457,-1.571,-0.13937,-22.9146,0.038807,0.0021987,-0.00056434,7.0906e-09,0.00081259,0,76.3155,0.11007,0.30269,483.0381,1455.8087
0.64258,9996.4498,-10.2182,240.4912,0.79714,2.156,-0.02006,-0.036618,89.9983,0.0009435,2.0457,-1.571,-0.13937,-22.9146,0.038807,0.0021987,-0.00056434,7.0906e-09,0.00081259,0,76.3155,0.10994,0.27591,483.0381,1455.8087
0.64356,9996.4498,-10.2182,240.4912,0.79714,2.156,-0.02006,-0.036618,89.9983,0.0009435,2.0457,-1.571,-0.13937,-22.9146,0.038807,0.0021987,-0.00056434,7.0906e-09,0.00081259,0,76.3155,0.10968,0.22611,483.0381,1455.8087
0.64553,9996.4498,-10.2182,240.4912,0.79714,2.156,-0.02006,-0.036618,89.9983,0.0009435,2.0457,-1.571,-0.13937,-22.9146,0.038807,0.0021987,-0.00056434,7.0906e-09,0.00081259,0,76.3155,0.10915,0.14001,483.0381,1455.8087
0.64945,9996.4498,-10.2182,240.4912,0.79714,2.156,-0.02006,-0.036618,89.9983,0.0009435,2.0457,-1.571,-0.13937,-22.9146,0.038807,0.0021987,-0.00056434,7.0906e-09,0.00081259,0,76.3155,0.10809,0.010988,483.0381,1455.8087
0.64987,9996.4498,-10.2182,240.4912,0.79714,2.156,-0.02006,-0.036618,89.9983,0.0009435,2.0457,-1.571,-0.13937,-22.9146,0.038807,0.0021987,-0.00056434,7.0906e-09,0.00081259,0,76.3155,0.10798,1.813e-13,483.0381,1455.8087
0.64987,9996.4498,-10.2182,240.4912,0.79714,2.156,-0.02006,-0.036618,89.9983,0.0009435,2.0457,-1.571,-0.13937,-22.9146,0.038807,0.0021987,-0.00056434,7.0906e-09,0.00081259,0,76.3155,0.10798,0,483.0381,1455.8087
0.65,9996.3642,-10.3122,240.4866,0.81512,2.1746,-0.020365,-0.035572,89.9983,0.000656,2.0752,-1.5454,-0.01685,-23.0579,0.03838,0.018007,-0.00080094,7.2645e-09,0.00082328,0,76.0804,0.10954,0.32057,483.0384,1455.8135
0.65013,9996.3642,-10.3122,240.4866,0.81512,2.1746,-0.020365,-0.035572,89.9983,0.000656,2.0752,-1.5454,-0.01685,-23.0579,0.03838,0.018007,-0.00080094,7.2645e-09,0.00082328,0,76.0804,0.1095,0.31301,483.0384,1455.8135
0.65039,9996.3642,-10.3122,240.4866,0.81512,2.1746,-0.020365,-0.035572,89.9983,0.000656,2.0752,-1.5454,-0.01685,-23.0579,0.03838,0.018007,-0.00080094,7.2645e-09,0.00082328,0,76.0804,0.10943,0.29817,483.0384,1455.8135
0.65092,9996.3642,-10.3122,240.4866,0.81512,2.1746,-0.020365,-0.035572,89.9983,0.000656,2.0752,-1.5454,-0.01685,-23.0579,0.03838,0.018007,-0.00080094,7.2645e-09,0.00082328,0,76.0804,0.10929,0.26964,483.0384,1455.8135
0.65198,9996.3642,-10.3122,240.4866,0.81512,2.1746,-0.020365,-0.035572,89.9983,0.000656,2.0752,-1.5454,-0.01685,-23.0579,0.03838,0.018007,-0.00080094,7.2645e-09,0.00082328,0,76.0804,0.109,0.2169,483.0384,1455.8135
0.6541,9996.3642,-10.3122,240.4866,0.81512,2.1746,-0.020365,-0.035572,89.9983,0.000656,2.0752,-1.5454,-0.01685,-23.0579,0.03838,0.018007,-0.00080094,7.2645e-09,0.00082328,0,76.0804,0.10842,0.12675,483.0384,1455.8135
0.65812,9996.3642,-10.3122,240.4866,0.81512,2.1746,-0.020365,-0.035572,89.9983,0.000656,2.0752,-1.5454,-0.01685,-23.0579,0.03838,0.018007,-0.00080094,7.2645e-09,0.00082328,0,76.0804,0.10733,1.1241e-13,483.0384,1455.8135
0.65812,9996.3642,-10.3122,240.4866,0.81512,2.1746,-0.020365,-0.035572,89.9983,0.000656,2.0752,-1.5454,-0.01685,-23.0579,0.03838,0.018007,-0.00080094,7.2645e-09,0.00082328,0,76.0804,0.10733,0,483.0384,1455.8135
0.65833,9996.2779,-10.4052,240.4821,0.83325,2.1929,-0.020662,-0.02698,89.9983,0.00025573,2.1047,-1.5194,0.1122,-23.2022,0.037949,0.032981,-0.00097991,7.4398e-09,0.00083397,0,75.8442,0.1089,0.31366,483.0388,1455.8184
0.65854,9996.2779,-10.4052,240.4821,0.83325,2.1929,-0.020662,-0.02698,89.9983,0.00025573,2.1047,-1.5194,0.1122,-23.2022,0.037949,0.032981,-0.00097991,7.4398e-09,0.00083397,0,75.8442,0.10884,0.30166,483.0388,1455.8184
0.65897,9996.2779,-10.4052,240.4821,0.83325,2.1929,-0.020662,-0.02698,89.9983,0.00025573,2.1047,-1.5194,0.1122,-23.2022,0.037949,0.032981,-0.00097991,7.4398e-09,0.00083397,0,75.8442,0.10872,0.27838,483.0388,1455.8184
0.65983,9996.2779,-10.4052,240.4821,0.83325,2.1929,-0.020662,-0.02698,89.9983,0.00025573,2.1047,-1.5194,0.1122,-23.2022,0.037949,0.032981,-0.00097991,7.4398e-09,0.00083397,0,75.8442,0.10849,0.2347,483.0388,1455.8184
0.66154,9996.2779,-10.4052,240.4821,0.83325,2.1929,-0.020662,-0.02698,89.9983,0.00025573,2.1047,-1.5194,0.1122,-23.2022,0.037949,0.032981,-0.00097991,7.4398e-09,0.00083397,0,75.8442,0.10802,0.15776,483.0388,1455.8184
0.66496,9996.2779,-10.4052,240.4821,0.83325,2.1929,-0.020662,-0.02698,89.9983,0.00025573,2.1047,-1.5194,0.1122,-23.2022,0.037949,0.032981,-0.00097991,7.4398e-09,0.00083397,0,75.8442,0.10708,0.038231,483.0388,1455.8184
0.66636,9996.2779,-10.4052,240.4821,0.83325,2.1929,-0.020662,-0.02698,89.9983,0.00025573,2.1047,-1.5194,0.1122,-23.2022,0.037949,0.032981,-0.00097991,7.4398e-09,0.00083397,0,75.8442,0.10669,1.8369e-13,483.0388,1455.8184
0.66636,9996.2779,-10.4052,240.4821,0.83325,2.1929,-0.020662,-0.02698,89.9983,0.00025573,2.1047,-1.5194,0.1122,-23.2022,0.037949,0.032981,-0.00097991,7.4398e-09,0.00083397,0,75.8442,0.10669,0,483.0388,1455.8184
0.66666,9996.1908,-10.4971,240.4776,0.85154,2.211,-0.020887,-0.01124,89.9983,-0.00022737,2.1343,-1.4931,0.2376,-23.3444,0.037516,0.045848,-0.0010817,7.6166e-09,0.00084466,0,75.6071,0.10826,0.30663,483.0391,1455.8233
0.66697,9996.1908,-10.4971,240.4776,0.85154,2.211,-0.020887,-0.01124,89.9983,-0.00022737,2.1343,-1.4931,0.2376,-23.3444,0.037516,0.045848,-0.0010817,7.6166e-09,0.00084466,0,75.6071,0.10818,0.29002,483.0391,1455.8233
0.66757,9996.1908,-10.4971,240.4776,0.85154,2.211,-0.020887,-0.01124,89.9983,-0.00022737,2.1343,-1.4931,0.2376,-23.3444,0.037516,0.045848,-0.0010817,7.6166e-09,0.00084466,0,75.6071,0.10801,0.2582,483.0391,1455.8233
0.66878,9996.1908,-10.4971,240.4776,0.85154,2.211,-0.020887,-0.01124,89.9983,-0.00022737,2.1343,-1.4931,0.2376,-23.3444,0.037516,0.045848,-0.0010817,7.6166e-09,0.00084466,0,75.6071,0.10768,0.20004,483.0391,1455.8233
0.6712,9996.1908,-10.4971,240.4776,0.85154,2.211,-0.020887,-0.01124,89.9983,-0.00022737,2.1343,-1.4931,0.2376,-23.3444,0.037516,0.045848,-0.0010817,7.6166e-09,0.00084466,0,75.6071,0.10701,0.10279,483.0391,1455.8233
0.6746,9996.1908,-10.4971,240.4776,0.85154,2.211,-0.020887,-0.01124,89.9983,-0.00022737,2.1343,-1.4931,0.2376,-23.3444,0.037516,0.045848,-0.0010817,7.6166e-09,0.00084466,0,75.6071,0.10606,5.1126e-14,483.0391,1455.8233
0.6746,9996.1908,-10.4971,240.4776,0.85154,2.211,-0.020887,-0.01124,89.9983,-0.00022737,2.1343,-1.4931,0.2376,-23.3444,0.037516,0.045848,-0.0010817,7.6166e-09,0.00084466,0,75.6071,0.10606,0,483.0391,1455.8233
0.675,9996.103,-10.5879,240.4732,0.86997,2.2289,-0.02098,0.010643,89.9983,-0.00075408,2.1638,-1.4662,0.34896,-23.4812,0.03708,0.055408,-0.0010922,7.7947e-09,0.00085535,0,75.369,0.10764,0.29953,483.0394,1455.8283
0.67539,9996.103,-10.5879,240.4732,0.86997,2.2289,-0.02098,0.010643,89.9983,-0.00075408,2.1638,-1.4662,0.34896,-23.4812,0.03708,0.055408,-0.0010922,7.7947e-09,0.00085535,0,75.369,0.10753,0.27826,483.0394,1455.8283
0.67618,9996.103,-10.5879,240.4732,0.86997,2.2289,-0.02098,0.010643,89.9983,-0.00075408,2.1638,-1.4662,0.34896,-23.4812,0.03708,0.055408,-0.0010922,7.7947e-09,0.00085535,0,75.369,0.10731,0.23807,483.0394,1455.8283
0.67776,9996.103,-10.5879,240.4732,0.86997,2.2289,-0.02098,0.010643,89.9983,-0.00075408,2.1638,-1.4662,0.34896,-23.4812,0.03708,0.055408,-0.0010922,7.7947e-09,0.00085535,0,75.369,0.10686,0.1666,483.0394,1455.8283
0.68092,9996.103,-10.5879,240.4732,0.86997,2.2289,-0.02098,0.010643,89.9983,-0.00075408,2.1638,-1.4662,0.34896,-23.4812,0.03708,0.055408,-0.0010922,7.7947e-09,0.00085535,0,75.369,0.10598,0.053382,483.0394,1455.8283
0.68284,9996.103,-10.5879,240.4732,0.86997,2.2289,-0.02098,0.010643,89.9983,-0.00075408,2.1638,-1.4662,0.34896,-23.4812,0.03708,0.055408,-0.0010922,7.7947e-09,0.00085535,0,75.369,0.10544,1.3323e-15,483.0394,1455.8283
0.68284,9996.103,-10.5879,240.4732,0.86997,2.2289,-0.02098,0.010643,89.9983,-0.00075408,2.1638,-1.4662,0.34896,-23.4812,0.03708,0.055408,-0.0010922,7.7947e-09,0.00085535,0,75.369,0.10544,0,483.0394,1455.8283
0.68333,9996.0144,-10.6776,240.4689,0.88856,2.2466,-0.020892,0.037089,89.9983,-0.0012786,2.1934,-1.4389,0.43622,-23.6097,0.036638,0.060658,-0.0010036,7.9743e-09,0.00086604,0,75.13,0.10701,0.29237,483.0397,1455.8333
0.68382,9996.0144,-10.6776,240.4689,0.88856,2.2466,-0.020892,0.037089,89.9983,-0.0012786,2.1934,-1.4389,0.43622,-23.6097,0.036638,0.060658,-0.0010036,7.9743e-09,0.00086604,0,75.13,0.10688,0.26645,483.0397,1455.8333
0.6848,9996.0144,-10.6776,240.4689,0.88856,2.2466,-0.020892,0.037089,89.9983,-0.0012786,2.1934,-1.4389,0.43622,-23.6097,0.036638,0.060658,-0.0010036,7.9743e-09,0.00086604,0,75.13,0.1066,0.21816,483.0397,1455.8333
0.68677,9996.0144,-10.6776,240.4689,0.88856,2.2466,-0.020892,0.037089,89.9983,-0.0012786,2.1934,-1.4389,0.43622,-23.6097,0.036638,0.060658,-0.0010036,7.9743e-09,0.00086604,0,75.13,0.10604,0.1347,483.0397,1455.8333
0.69069,9996.0144,-10.6776,240.4689,0.88856,2.2466,-0.020892,0.037089,89.9983,-0.0012786,2.1934,-1.4389,0.43622,-23.6097,0.036638,0.060658,-0.0010036,7.9743e-09,0.00086604,0,75.13,0.10493,0.0096662,483.0397,1455.8333
0.69107,9996.0144,-10.6776,240.4689,0.88856,2.2466,-0.020892,0.037089,89.9983,-0.0012786,2.1934,-1.4389,0.43622,-23.6097,0.036638,0.060658,-0.0010036,7.9743e-09,0.00086604,0,75.13,0.10483,1.6037e-13,483.0397,1455.8333
0.69107,9996.0144,-10.6776,240.4689,0.88856,2.2466,-0.020892,0.037089,89.9983,-0.0012786,2.1934,-1.4389,0.43622,-23.6097,0.036638,0.060658,-0.0010036,7.9743e-09,0.00086604,0,75.13,0.10483,0,483.0397,1455.8333
0.69166,9995.925,-10.7662,240.4645,0.90729,2.2641,-0.020583,0.066043,89.9983,-0.0017521,2.223,-1.4345,0.49067,-23.7272,0.036188,0.060863,-0.00081607,8.1554e-09,0.00087673,0,74.8916,0.10639,0.29594,483.04,1455.8383
0.69225,9995.925,-10.7662,240.4645,0.90729,2.2641,-0.020583,0.066043,89.9983,-0.0017521,2.223,-1.4345,0.49067,-23.7272,0.036188,0.060863,-0.00081607,8.1554e-09,0.00087673,0,74.8916,0.10622,0.26478,483.04,1455.8383
0.69344,9995.925,-10.7662,240.4645,0.90729,2.2641,-0.020583,0.066043,89.9983,-0.0017521,2.223,-1.4345,0.49067,-23.7272,0.036188,0.060863,-0.00081607,8.1554e-09,0.00087673,0,74.8916,0.10589,0.2076,483.04,1455.8383
0.6958,9995.925,-10.7662,240.4645,0.90729,2.2641,-0.020583,0.066043,89.9983,-0.0017521,2.223,-1.4345,0.49067,-23.7272,0.036188,0.060863,-0.00081607,8.1554e-09,0.00087673,0,74.8916,0.10521,0.11161,483.04,1455.8383
0.6995,9995.925,-10.7662,240.4645,0.90729,2.2641,-0.020583,0.066043,89.9983,-0.0017521,2.223,-1.4345,0.49067,-23.7272,0.036188,0.060863,-0.00081607,8.1554e-09,0.00087673,0,74.8916,0.10416,1.7172e-13,483.04,1455.8383
0.6995,9995.925,-10.7662,240.4645,0.90729,2.2641,-0.020583,0.066043,89.9983,-0.0017521,2.223,-1.4345,0.49067,-23.7272,0.036188,0.060863,-0.00081607,8.1554e-09,0.00087673,0,74.8916,0.10416,0,483.04,1455.8383
0.7,9995.8349,-10.8537,240.4599,0.92617,2.2814,-0.020032,0.095097,89.9983,-0.0021262,2.2526,-1.4572,0.50554,-23.8316,0.035737,0.055653,-0.0005381,8.3379e-09,0.00088743,0,74.6561,0.10577,0.3133,483.0403,1455.8434
0.70049,9995.8349,-10.8537,240.4599,0.92617,2.2814,-0.020032,0.095097,89.9983,-0.0021262,2.2526,-1.4572,0.50554,-23.8316,0.035737,0.055653,-0.0005381,8.3379e-09,0.00088743,0,74.6561,0.10563,0.28642,483.0403,1455.8434
0.70148,9995.8349,-10.8537,240.4599,0.92617,2.2814,-0.020032,0.095097,89.9983,-0.0021262,2.2526,-1.4572,0.50554,-23.8316,0.035737,0.055653,-0.0005381,8.3379e-09,0.00088743,0,74.6561,0.10534,0.23638,483.0403,1455.8434
0.70345,9995.8349,-10.8537,240.4599,0.92617,2.2814,-0.020032,0.095097,89.9983,-0.0021262,2.2526,-1.4572,0.50554,-23.8316,0.035737,0.055653,-0.0005381,8.3379e-09,0.00088743,0,74.6561,0.10478,0.14992,483.0403,1455.8434
0.70739,9995.8349,-10.8537,240.4599,0.92617,2.2814,-0.020032,0.095097,89.9983,-0.0021262,2.2526,-1.4572,0.50554,-23.8316,0.035737,0.055653,-0.0005381,8.3379e-09,0.00088743,0,74.6561,0.10364,0.02055,483.0403,1455.8434
0.70819,9995.8349,-10.8537,240.4599,0.92617,2.2814,-0.020032,0.095097,89.9983,-0.0021262,2.2526,-1.4572,0.50554,-23.8316,0.035737,0.055653,-0.0005381,8.3379e-09,0.00088743,0,74.6561,0.10341,9.0511e-14,483.0403,1455.8434
0.70819,9995.8349,-10.8537,240.4599,0.92617,2.2814,-0.020032,0.095097,89.9983,-0.0021262,2.2526,-1.4572,0.50554,-23.8316,0.035737,0.055653,-0.0005381,8.3379e-09,0.00088743,0,74.6561,0.10341,0,483.0403,1455.8434
0.70833,9995.7441,-10.9401,240.4551,0.94519,2.2985,-0.01924,0.12166,89.9983,-0.0023574,2.2822,-1.479,0.47681,-23.9224,0.035298,0.045069,-0.00018664,8.5218e-09,0.00089812,0,74.4235,0.10514,0.33225,483.0407,1455.8485
0.70847,9995.7441,-10.9401,240.4551,0.94519,2.2985,-0.01924,0.12166,89.9983,-0.0023574,2.2822,-1.479,0.47681,-23.9224,0.035298,0.045069,-0.00018664,8.5218e-09,0.00089812,0,74.4235,0.1051,0.32402,483.0407,1455.8485
0.70876,9995.7441,-10.9401,240.4551,0.94519,2.2985,-0.01924,0.12166,89.9983,-0.0023574,2.2822,-1.479,0.47681,-23.9224,0.035298,0.045069,-0.00018664,8.5218e-09,0.00089812,0,74.4235,0.10502,0.30788,483.0407,1455.8485
0.70934,9995.7441,-10.9401,240.4551,0.94519,2.2985,-0.01924,0.12166,89.9983,-0.0023574,2.2822,-1.479,0.47681,-23.9224,0.035298,0.045069,-0.00018664,8.5218e-09,0.00089812,0,74.4235,0.10485,0.27695,483.0407,1455.8485
0.71049,9995.7441,-10.9401,240.4551,0.94519,2.2985,-0.01924,0.12166,89.9983,-0.0023574,2.2822,-1.479,0.47681,-23.9224,0.035298,0.045069,-0.00018664,8.5218e-09,0.00089812,0,74.4235,0.10451,0.22019,483.0407,1455.8485
0.71279,9995.7441,-10.9401,240.4551,0.94519,2.2985,-0.01924,0.12166,89.9983,-0.0023574,2.2822,-1.479,0.47681,-23.9224,0.035298,0.045069,-0.00018664,8.5218e-09,0.00089812,0,74.4235,0.10385,0.12447,483.0407,1455.8485
0.71643,9995.7441,-10.9401,240.4551,0.94519,2.2985,-0.01924,0.12166,89.9983,-0.0023574,2.2822,-1.479,0.47681,-23.9224,0.035298,0.045069,-0.00018664,8.5218e-09,0.00089812,0,74.4235,0.10279,0.011536,483.0407,1455.8485
0.71643,9995.7441,-10.9401,240.4551,0.94519,2.2985,-0.01924,0.12166,89.9983,-0.0023574,2.2822,-1.479,0.47681,-23.9224,0.035298,0.045069,-0.00018664,8.5218e-09,0.00089812,0,74.4235,0.10279,0.011536,483.0407,1455.8485
0.71666,9995.6526,-11.0254,240.4506,0.96435,2.3153,-0.018226,0.14318,89.9983,-0.0024114,2.3118,-1.4511,0.40369,-24.0006,0.034864,0.029607,0.0002136,8.7072e-09,0.00090881,0,74.1899,0.10452,0.32938,483.041,1455.8537
0.7169,9995.6526,-11.0254,240.4506,0.96435,2.3153,-0.018226,0.14318,89.9983,-0.0024114,2.3118,-1.4511,0.40369,-24.0006,0.034864,0.029607,0.0002136,8.7072e-09,0.00090881,0,74.1899,0.10445,0.3162,483.041,1455.8537
0.71736,9995.6526,-11.0254,240.4506,0.96435,2.3153,-0.018226,0.14318,89.9983,-0.0024114,2.3118,-1.4511,0.40369,-24.0006,0.034864,0.029607,0.0002136,8.7072e-09,0.00090881,0,74.1899,0.10431,0.29074,483.041,1455.8537
0.71829,9995.6526,-11.0254,240.4506,0.96435,2.3153,-0.018226,0.14318,89.9983,-0.0024114,2.3118,-1.4511,0.40369,-24.0006,0.034864,0.029607,0.0002136,8.7072e-09,0.00090881,0,74.1899,0.10404,0.24324,483.041,1455.8537
0.72016,9995.6526,-11.0254,240.4506,0.96435,2.3153,-0.018226,0.14318,89.9983,-0.0024114,2.3118,-1.4511,0.40369,-24.0006,0.034864,0.029607,0.0002136,8.7072e-09,0.00090881,0,74.1899,0.1035,0.1605,483.041,1455.8537
0.72388,9995.6526,-11.0254,240.4506,0.96435,2.3153,-0.018226,0.14318,89.9983,-0.0024114,2.3118,-1.4511,0.40369,-24.0006,0.034864,0.029607,0.0002136,8.7072e-09,0.00090881,0,74.1899,0.1024,0.034734,483.041,1455.8537
0.725,9995.5604,-11.1096,240.446,0.98366,2.332,-0.017033,0.15732,89.9982,-0.0022663,2.3414,-1.4228,0.28901,-24.0669,0.034435,0.010202,0.00063151,8.8938e-09,0.00091949,0,73.9553,0.1039,0.32451,483.0413,1455.8589
0.73058,9995.5604,-11.1096,240.446,0.98366,2.332,-0.017033,0.15732,89.9982,-0.0022663,2.3414,-1.4228,0.28901,-24.0669,0.034435,0.010202,0.00063151,8.8938e-09,0.00091949,0,73.9553,0.10225,0.081902,483.0413,1455.8589
0.73333,9995.4675,-11.1927,240.4416,1.0031,2.3484,-0.015722,0.1622,89.9982,-0.0019161,2.3711,-1.3943,0.13925,-24.1236,0.034005,-0.011799,0.0010316,9.0816e-09,0.00093018,0,73.7197,0.10329,0.31875,483.0416,1455.8641
0.74166,9995.3738,-11.2746,240.4372,1.0227,2.3646,-0.01437,0.15657,89.9982,-0.0013723,2.4007,-1.3655,-0.035669,-24.1739,0.033574,-0.034718,0.0013766,9.2707e-09,0.00094087,0,73.4832,0.10269,0.31264,483.042,1455.8694
0.75,9995.2795,-11.3555,240.4328,1.0424,2.3807,-0.013065,0.14001,89.9982,-0.00066495,2.4303,-1.3365,-0.22286,-24.2219,0.033141,-0.056652,0.0016305,9.4608e-09,0.00095156,0,73.2457,0.1021,0.30629,483.0423,1455.8747
0.75827,9995.2795,-11.3555,240.4328,1.0424,2.3807,-0.013065,0.14001,89.9982,-0.00066495,2.4303,-1.3365,-0.22286,-24.2219,0.033141,-0.056652,0.0016305,9.4608e-09,0.00095156,0,73.2457,0.099598,9.7894e-14,483.0423,1455.8747
0.75827,9995.2795,-11.3555,240.4328,1.0424,2.3807,-0.013065,0.14001,89.9982,-0.00066495,2.4303,-1.3365,-0.22286,-24.2219,0.033141,-0.056652,0.0016305,9.4608e-09,0.00095156,0,73.2457,0.099598,0,483.0423,1455.8747
0.75833,9995.1846,-11.4353,240.4285,1.0622,2.3965,-0.011899,0.11297,89.9982,0.00015869,2.46,-1.3075,-0.4073,-24.2722,0.032706,-0.075612,0.0017617,9.652e-09,0.00096225,0,73.0072,0.10152,0.2998,483.0426,1455.8801
0.75839,9995.1846,-11.4353,240.4285,1.0622,2.3965,-0.011899,0.11297,89.9982,0.00015869,2.46,-1.3075,-0.4073,-24.2722,0.032706,-0.075612,0.0017617,9.652e-09,0.00096225,0,73.0072,0.1015,0.29677,483.0426,1455.8801
0.7585,9995.1846,-11.4353,240.4285,1.0622,2.3965,-0.011899,0.11297,89.9982,0.00015869,2.46,-1.3075,-0.4073,-24.2722,0.032706,-0.075612,0.0017617,9.652e-09,0.00096225,0,73.0072,0.10147,0.29075,483.0426,1455.8801
0.75873,9995.1846,-11.4353,240.4285,1.0622,2.3965,-0.011899,0.11297,89.9982,0.00015869,2.46,-1.3075,-0.4073,-24.2722,0.032706,-0.075612,0.0017617,9.652e-09,0.00096225,0,73.0072,0.1014,0.27892,483.0426,1455.8801
0.75918,9995.1846,-11.4353,240.4285,1.0622,2.3965,-0.011899,0.11297,89.9982,0.00015869,2.46,-1.3075,-0.4073,-24.2722,0.032706,-0.075612,0.0017617,9.652e-09,0.00096225,0,73.0072,0.10126,0.25604,483.0426,1455.8801
0.76009,9995.1846,-11.4353,240.4285,1.0622,2.3965,-0.011899,0.11297,89.9982,0.00015869,2.46,-1.3075,-0.4073,-24.2722,0.032706,-0.075612,0.0017617,9.652e-09,0.00096225,0,73.0072,0.10098,0.21329,483.0426,1455.8801
0.76191,9995.1846,-11.4353,240.4285,1.0622,2.3965,-0.011899,0.11297,89.9982,0.00015869,2.46,-1.3075,-0.4073,-24.2722,0.032706,-0.075612,0.0017617,9.652e-09,0.00096225,0,73.0072,0.10043,0.13858,483.0426,1455.8801
0.76554,9995.1846,-11.4353,240.4285,1.0622,2.3965,-0.011899,0.11297,89.9982,0.00015869,2.46,-1.3075,-0.4073,-24.2722,0.032706,-0.075612,0.0017617,9.652e-09,0.00096225,0,73.0072,0.099319,0.024262,483.0426,1455.8801
0.76652,9995.1846,-11.4353,240.4285,1.0622,2.3965,-0.011899,0.11297,89.9982,0.00015869,2.46,-1.3075,-0.4073,-24.2722,0.032706,-0.075612,0.0017617,9.652e-09,0.00096225,0,73.0072,0.099021,1.6526e-13,483.0426,1455.8801
0.76652,9995.1846,-11.4353,240.4285,1.0622,2.3965,-0.011899,0.11297,89.9982,0.00015869,2.46,-1.3075,-0.4073,-24.2722,0.032706,-0.075612,0.0017617,9.652e-09,0.00096225,0,73.0072,0.099021,0,483.0426,1455.8801
0.76666,9995.089,-11.514,240.4243,1.0822,2.4121,-0.010957,0.076887,89.9982,0.0010363,2.4896,-1.2784,-0.57283,-24.3299,0.032263,-0.089675,0.0017461,9.844e-09,0.00097294,0,72.7676,0.10094,0.29315,483.043,1455.8855
0.76681,9995.089,-11.514,240.4243,1.0822,2.4121,-0.010957,0.076887,89.9982,0.0010363,2.4896,-1.2784,-0.57283,-24.3299,0.032263,-0.089675,0.0017461,9.844e-09,0.00097294,0,72.7676,0.1009,0.2855,483.043,1455.8855
0.7671,9995.089,-11.514,240.4243,1.0822,2.4121,-0.010957,0.076887,89.9982,0.0010363,2.4896,-1.2784,-0.57283,-24.3299,0.032263,-0.089675,0.0017461,9.844e-09,0.00097294,0,72.7676,0.10081,0.27052,483.043,1455.8855
0.76769,9995.089,-11.514,240.4243,1.0822,2.4121,-0.010957,0.076887,89.9982,0.0010363,2.4896,-1.2784,-0.57283,-24.3299,0.032263,-0.089675,0.0017461,9.844e-09,0.00097294,0,72.7676,0.10063,0.24182,483.043,1455.8855
0.76886,9995.089,-11.514,240.4243,1.0822,2.4121,-0.010957,0.076887,89.9982,0.0010363,2.4896,-1.2784,-0.57283,-24.3299,0.032263,-0.089675,0.0017461,9.844e-09,0.00097294,0,72.7676,0.10027,0.18923,483.043,1455.8855
0.77119,9995.089,-11.514,240.4243,1.0822,2.4121,-0.010957,0.076887,89.9982,0.0010363,2.4896,-1.2784,-0.57283,-24.3299,0.032263,-0.089675,0.0017461,9.844e-09,0.00097294,0,72.7676,0.099549,0.10078,483.043,1455.8855
0.77476,9995.089,-11.514,240.4243,1.0822,2.4121,-0.010957,0.076887,89.9982,0.0010363,2.4896,-1.2784,-0.57283,-24.3299,0.032263,-0.089675,0.0017461,9.844e-09,0.00097294,0,72.7676,0.098453,1.3212e-13,483.043,1455.8855
0.77476,9995.089,-11.514,240.4243,1.0822,2.4121,-0.010957,0.076887,89.9982,0.0010363,2.4896,-1.2784,-0.57283,-24.3299,0.032263,-0.089675,0.0017461,9.844e-09,0.00097294,0,72.7676,0.098453,0,483.043,1455.8855
0.775,9994.9927,-11.5916,240.42,1.1023,2.4275,-0.010316,0.034088,89.9982,0.0018943,2.5192,-1.2805,-0.70343,-24.3993,0.031814,-0.097158,0.0015702,1.0037e-08,0.00098363,0,72.5294,0.10036,0.30073,483.0433,1455.8909
0.77523,9994.9927,-11.5916,240.42,1.1023,2.4275,-0.010316,0.034088,89.9982,0.0018943,2.5192,-1.2805,-0.70343,-24.3993,0.031814,-0.097158,0.0015702,1.0037e-08,0.00098363,0,72.5294,0.10029,0.28822,483.0433,1455.8909
0.77571,9994.9927,-11.5916,240.42,1.1023,2.4275,-0.010316,0.034088,89.9982,0.0018943,2.5192,-1.2805,-0.70343,-24.3993,0.031814,-0.097158,0.0015702,1.0037e-08,0.00098363,0,72.5294,0.10014,0.26403,483.0433,1455.8909
0.77666,9994.9927,-11.5916,240.42,1.1023,2.4275,-0.010316,0.034088,89.9982,0.0018943,2.5192,-1.2805,-0.70343,-24.3993,0.031814,-0.097158,0.0015702,1.0037e-08,0.00098363,0,72.5294,0.09985,0.21898,483.0433,1455.8909
0.77856,9994.9927,-11.5916,240.42,1.1023,2.4275,-0.010316,0.034088,89.9982,0.0018943,2.5192,-1.2805,-0.70343,-24.3993,0.031814,-0.097158,0.0015702,1.0037e-08,0.00098363,0,72.5294,0.099262,0.14071,483.0433,1455.8909
0.78236,9994.9927,-11.5916,240.42,1.1023,2.4275,-0.010316,0.034088,89.9982,0.0018943,2.5192,-1.2805,-0.70343,-24.3993,0.031814,-0.097158,0.0015702,1.0037e-08,0.00098363,0,72.5294,0.098085,0.022386,483.0433,1455.8909
0.78327,9994.9927,-11.5916,240.42,1.1023,2.4275,-0.010316,0.034088,89.9982,0.0018943,2.5192,-1.2805,-0.70343,-24.3993,0.031814,-0.097158,0.0015702,1.0037e-08,0.00098363,0,72.5294,0.097802,1.3334e-13,483.0433,1455.8909
0.78327,9994.9927,-11.5916,240.42,1.1023,2.4275,-0.010316,0.034088,89.9982,0.0018943,2.5192,-1.2805,-0.70343,-24.3993,0.031814,-0.097158,0.0015702,1.0037e-08,0.00098363,0,72.5294,0.097802,0,483.0433,1455.8909
0.78333,9994.8958,-11.6681,240.4155,1.1226,2.4427,-0.010032,-0.012286,89.9982,0.0026535,2.5488,-1.2996,-0.78448,-24.4847,0.031363,-0.096774,0.001233,1.0231e-08,0.00099432,0,72.2938,0.099786,0.31755,483.0437,1455.8964
0.78339,9994.8958,-11.6681,240.4155,1.1226,2.4427,-0.010032,-0.012286,89.9982,0.0026535,2.5488,-1.2996,-0.78448,-24.4847,0.031363,-0.096774,0.001233,1.0231e-08,0.00099432,0,72.2938,0.099768,0.31431,483.0437,1455.8964
0.78351,9994.8958,-11.6681,240.4155,1.1226,2.4427,-0.010032,-0.012286,89.9982,0.0026535,2.5488,-1.2996,-0.78448,-24.4847,0.031363,-0.096774,0.001233,1.0231e-08,0.00099432,0,72.2938,0.099731,0.30789,483.0437,1455.8964
0.78374,9994.8958,-11.6681,240.4155,1.1226,2.4427,-0.010032,-0.012286,89.9982,0.0026535,2.5488,-1.2996,-0.78448,-24.4847,0.031363,-0.096774,0.001233,1.0231e-08,0.00099432,0,72.2938,0.099657,0.29528,483.0437,1455.8964
0.78422,9994.8958,-11.6681,240.4155,1.1226,2.4427,-0.010032,-0.012286,89.9982,0.0026535,2.5488,-1.2996,-0.78448,-24.4847,0.031363,-0.096774,0.001233,1.0231e-08,0.00099432,0,72.2938,0.09951,0.27093,483.0437,1455.8964
0.78516,9994.8958,-11.6681,240.4155,1.1226,2.4427,-0.010032,-0.012286,89.9982,0.0026535,2.5488,-1.2996,-0.78448,-24.4847,0.031363,-0.096774,0.001233,1.0231e-08,0.00099432,0,72.2938,0.099214,0.22555,483.0437,1455.8964
0.78706,9994.8958,-11.6681,240.4155,1.1226,2.4427,-0.010032,-0.012286,89.9982,0.0026535,2.5488,-1.2996,-0.78448,-24.4847,0.031363,-0.096774,0.001233,1.0231e-08,0.00099432,0,72.2938,0.098624,0.14669,483.0437,1455.8964
0.79084,9994.8958,-11.6681,240.4155,1.1226,2.4427,-0.010032,-0.012286,89.9982,0.0026535,2.5488,-1.2996,-0.78448,-24.4847,0.031363,-0.096774,0.001233,1.0231e-08,0.00099432,0,72.2938,0.097443,0.02733,483.0437,1455.8964
